Latitude,Longitude,지역별 겨래량,법정동주소
37.7329291,128.9762455,30,강원특별자치도 강릉시 강동면 안인리
37.7726788,128.9430612,545,강원특별자치도 강릉시 견소동
37.7674347,128.8880731,1749,강원특별자치도 강릉시 교동
37.7537085,128.8963884,6,강원특별자치도 강릉시 금학동
37.7494593,128.8894712,38,강원특별자치도 강릉시 남문동
37.7376414,128.875436,676,강원특별자치도 강릉시 내곡동
37.7436407,128.9006479,829,강원특별자치도 강릉시 노암동
37.8416208,128.8674164,4,강원특별자치도 강릉시 사천면 사천진리
37.752771,128.8995645,6,강원특별자치도 강릉시 성남동
37.7760607,128.9329075,419,강원특별자치도 강릉시 송정동
37.8675279,128.8405508,250,강원특별자치도 강릉시 연곡면 영진리
37.6084652,129.0283782,6,강원특별자치도 강릉시 옥계면 현내리
37.7585472,128.9015863,8,강원특별자치도 강릉시 옥천동
37.7666534,128.8604656,155,강원특별자치도 강릉시 유천동
37.7557932,128.8943897,8,강원특별자치도 강릉시 임당동
37.7574121,128.916758,2593,강원특별자치도 강릉시 입암동
37.7988289,128.8926735,98,강원특별자치도 강릉시 저동
37.8779045,128.8181481,592,강원특별자치도 강릉시 주문진읍 교항리
37.8977596,128.8184944,187,강원특별자치도 강릉시 주문진읍 주문리
37.7748657,128.8696831,76,강원특별자치도 강릉시 지변동
37.7907505,128.9115249,570,강원특별자치도 강릉시 초당동
37.7740982,128.9079725,1263,강원특별자치도 강릉시 포남동
37.7512918,128.8718733,633,강원특별자치도 강릉시 홍제동
37.7382908,128.8660041,209,강원특별자치도 강릉시 회산동
38.3825376,128.4630941,74,강원특별자치도 고성군 간성읍 상리
38.379239,128.4756437,205,강원특별자치도 고성군 간성읍 신안리
38.4481531,128.4551093,41,강원특별자치도 고성군 거진읍 거진리
38.4288974,128.4445111,62,강원특별자치도 고성군 거진읍 송포리
38.2463522,128.5589022,31,강원특별자치도 고성군 토성면 봉포리
38.255626,128.5498681,25,강원특별자치도 고성군 토성면 천진리
38.266851,128.5494537,122,강원특별자치도 고성군 토성면 청간리
37.4839017,129.1332398,45,강원특별자치도 동해시 구미동
37.4697973,129.1179867,19,강원특별자치도 동해시 단봉동
37.4928335,129.0998411,589,강원특별자치도 동해시 동회동
37.5555703,129.1144001,79,강원특별자치도 동해시 묵호진동
37.5512645,129.0954891,329,강원특별자치도 동해시 발한동
37.5379354,129.0927233,356,강원특별자치도 동해시 부곡동
37.4732757,129.1224957,212,강원특별자치도 동해시 북평동
37.4940372,129.1257708,12,강원특별자치도 동해시 송정동
37.4784901,129.0756032,166,강원특별자치도 동해시 쇄운동
37.5068432,129.1199073,71,강원특별자치도 동해시 용정동
37.4784048,129.1054035,451,강원특별자치도 동해시 이도동
37.4974734,129.0540396,83,강원특별자치도 동해시 이로동
37.5205344,129.0986242,1339,강원특별자치도 동해시 천곡동
37.5319136,129.0996014,436,강원특별자치도 동해시 평릉동
37.4977635,129.1095263,166,강원특별자치도 동해시 효가동
37.4645867,129.1634116,77,강원특별자치도 삼척시 갈천동
37.4289361,129.1476723,40,강원특별자치도 삼척시 건지동
37.4545719,129.1740938,698,강원특별자치도 삼척시 교동
37.3758664,129.2276536,14,강원특별자치도 삼척시 근덕면 교가리
37.4208396,129.1703619,188,강원특별자치도 삼척시 남양동
37.4460141,129.1612345,16,강원특별자치도 삼척시 당저동
37.2310597,129.0577581,43,강원특별자치도 삼척시 도계읍 도계리
37.2320115,129.0376105,6,강원특별자치도 삼척시 도계읍 전두리
37.4531546,129.1559572,100,강원특별자치도 삼척시 마달동
37.4262365,129.1703431,35,강원특별자치도 삼척시 사직동
37.4435514,129.1568682,8,강원특별자치도 삼척시 성북동
37.4423213,129.1502818,97,강원특별자치도 삼척시 원당동
37.19665,129.3164709,4,강원특별자치도 삼척시 원덕읍 옥원리
37.2406326,129.3128843,13,강원특별자치도 삼척시 원덕읍 임원리
37.177717,129.3407441,8,강원특별자치도 삼척시 원덕읍 호산리
37.4392596,129.1784042,1260,강원특별자치도 삼척시 정상동
38.2019034,128.5739049,2733,강원특별자치도 속초시 교동
38.2100462,128.5794728,388,강원특별자치도 속초시 금호동
38.1706023,128.5335648,3,강원특별자치도 속초시 대포동
38.2113386,128.5916408,275,강원특별자치도 속초시 동명동
38.1626862,128.4849533,27,강원특별자치도 속초시 설악동
38.21579,128.5928384,166,강원특별자치도 속초시 영랑동
38.2141071,128.5579233,33,강원특별자치도 속초시 장사동
38.1855274,128.5830177,2678,강원특별자치도 속초시 조양동
38.2063587,128.5892691,11,강원특별자치도 속초시 중앙동
38.2026567,128.5844839,19,강원특별자치도 속초시 청학동
38.1951876,128.5962751,131,강원특별자치도 속초시 청호동
38.1040437,127.9864059,211,강원특별자치도 양구군 양구읍 상리
38.0960334,127.9745089,293,강원특별자치도 양구군 양구읍 정림리
38.1085129,127.9891278,21,강원특별자치도 양구군 양구읍 중리
38.154596,128.5881296,19,강원특별자치도 양양군 강현면 강선리
38.1409839,128.6068704,81,강원특별자치도 양양군 강현면 정암리
38.0598128,128.6423092,99,강원특별자치도 양양군 손양면 하왕도리
38.089457,128.5864589,27,강원특별자치도 양양군 양양읍 거마리
38.0793447,128.619973,84,강원특별자치도 양양군 양양읍 구교리
38.0838178,128.6053465,126,강원특별자치도 양양군 양양읍 내곡리
38.0723602,128.6139506,100,강원특별자치도 양양군 양양읍 서문리
38.0783816,128.61701,20,강원특별자치도 양양군 양양읍 성내리
38.0879626,128.6334497,19,강원특별자치도 양양군 양양읍 송암리
38.0806839,128.6290443,32,강원특별자치도 양양군 양양읍 연창리
38.0616616,128.6215764,119,강원특별자치도 양양군 양양읍 월리
38.0885967,128.6202301,54,강원특별자치도 양양군 양양읍 청곡리
37.9566563,128.7670485,108,강원특별자치도 양양군 현남면 광진리
37.9397818,128.7781586,17,강원특별자치도 양양군 현남면 남애리
38.0098472,128.7266986,40,강원특별자치도 양양군 현북면 기사문리
38.027367,128.7067254,136,강원특별자치도 양양군 현북면 중광정리
37.1761325,128.4868139,97,강원특별자치도 영월군 영월읍 덕포리
37.1888264,128.4403814,40,강원특별자치도 영월군 영월읍 방절리
37.2026799,128.4715718,153,강원특별자치도 영월군 영월읍 영흥리
37.1780092,128.4588822,469,강원특별자치도 영월군 영월읍 하송리
37.2671821,128.2876454,7,강원특별자치도 영월군 주천면 주천리
37.2377261,128.3227771,2,강원특별자치도 영월군 한반도면 신천리
37.3382632,127.9559957,862,강원특별자치도 원주시 개운동
37.3173707,127.9821017,1036,강원특별자치도 원주시 관설동
37.3525297,127.9300719,3014,강원특별자치도 원주시 단계동
37.3242021,127.9568035,4265,강원특별자치도 원주시 단구동
37.3346798,127.9438351,2289,강원특별자치도 원주시 명륜동
37.3273165,127.9206605,2382,강원특별자치도 원주시 무실동
37.3162611,127.8333974,795,강원특별자치도 원주시 문막읍 건등리
37.3264572,127.8461587,457,강원특별자치도 원주시 문막읍 동화리
37.2972231,127.7783226,12,강원특별자치도 원주시 문막읍 반계리
37.2909617,127.8183428,47,강원특별자치도 원주시 문막읍 포진리
37.3244232,127.9908383,1912,강원특별자치도 원주시 반곡동
37.3547118,127.9759728,441,강원특별자치도 원주시 봉산동
37.4122498,127.9624582,235,강원특별자치도 원주시 소초면 장양리
37.3800563,127.9330621,904,강원특별자치도 원주시 우산동
37.3441779,127.9477131,624,강원특별자치도 원주시 원동
37.34818,127.9433454,427,강원특별자치도 원주시 일산동
37.3604651,127.9474366,14,강원특별자치도 원주시 중앙동
37.3675803,127.8699086,1717,강원특별자치도 원주시 지정면 가곡리
37.3793844,127.9569719,3067,강원특별자치도 원주시 태장동
37.2814009,127.9450093,457,강원특별자치도 원주시 판부면 서곡리
37.3551331,127.940543,223,강원특별자치도 원주시 학성동
37.3438799,128.0019327,1040,강원특별자치도 원주시 행구동
37.3583671,127.9060502,24,강원특별자치도 원주시 호저면 만종리
37.259809,127.911492,473,강원특별자치도 원주시 흥업면 매지리
37.3292768,127.8858854,41,강원특별자치도 원주시 흥업면 사제리
37.2990621,127.9141657,276,강원특별자치도 원주시 흥업면 흥업리
37.948639,128.3172237,17,강원특별자치도 인제군 기린면 현리
37.9763688,128.0820625,23,강원특별자치도 인제군 남면 신남리
38.1323492,128.2292072,129,강원특별자치도 인제군 북면 원통리
38.2264721,128.2324778,14,강원특별자치도 인제군 서화면 천도리
38.0771327,128.1436063,53,강원특별자치도 인제군 인제읍 남북리
38.0894507,128.2020866,39,강원특별자치도 인제군 인제읍 덕산리
38.0736804,128.1695345,74,강원특별자치도 인제군 인제읍 상동리
38.0912339,128.1747941,13,강원특별자치도 인제군 인제읍 합강리
37.1922511,128.8706731,69,강원특별자치도 정선군 고한읍 고한리
37.2520769,128.7817425,173,강원특별자치도 정선군 남면 무릉리
37.2534286,128.726245,75,강원특별자치도 정선군 남면 문곡리
37.2220583,128.8218722,330,강원특별자치도 정선군 사북읍 사북리
37.207024,128.676143,31,강원특별자치도 정선군 신동읍 조동리
37.4624004,128.7244295,2,강원특별자치도 정선군 여량면 여량리
37.4839611,128.8501199,13,강원특별자치도 정선군 임계면 봉산리
37.4973474,128.846014,11,강원특별자치도 정선군 임계면 송계리
37.390806,128.6392741,6,강원특별자치도 정선군 정선읍 봉양리
37.3624574,128.6483398,246,강원특별자치도 정선군 정선읍 북실리
37.3873252,128.6859393,6,강원특별자치도 정선군 정선읍 애산리
38.1592359,127.297865,78,강원특별자치도 철원군 갈말읍 군탄리
38.1285213,127.341546,17,강원특별자치도 철원군 갈말읍 신철원리
38.1387257,127.2981953,135,강원특별자치도 철원군 갈말읍 지포리
38.2211325,127.2373238,48,강원특별자치도 철원군 동송읍 오덕리
38.1956035,127.214594,169,강원특별자치도 철원군 동송읍 이평리
38.2363625,127.4398667,21,강원특별자치도 철원군 서면 와수리
38.2234259,127.2071808,65,강원특별자치도 철원군 철원읍 화지리
37.8846917,127.7146857,532,강원특별자치도 춘천시 근화동
37.776776,127.6341486,64,강원특별자치도 춘천시 남산면 창촌리
37.8594804,127.7837564,717,강원특별자치도 춘천시 동내면 거두리
37.8516285,127.775958,17,강원특별자치도 춘천시 동내면 신촌리
37.8257388,127.7558347,10,강원특별자치도 춘천시 동내면 학곡리
37.8784388,127.7784715,654,강원특별자치도 춘천시 동면 만천리
37.9053208,127.7601752,550,강원특별자치도 춘천시 동면 장학리
37.9169518,127.779076,25,강원특별자치도 춘천시 동면 지내리
37.886363,127.7309483,2,강원특별자치도 춘천시 봉의동
37.9148987,127.7227653,710,강원특별자치도 춘천시 사농동
37.867791,127.6973391,45,강원특별자치도 춘천시 삼천동
37.858413,127.7508221,2852,강원특별자치도 춘천시 석사동
37.8869659,127.7260212,539,강원특별자치도 춘천시 소양로2가
37.9410943,127.7903927,325,강원특별자치도 춘천시 신북읍 천전리
37.8741525,127.7253092,165,강원특별자치도 춘천시 약사동
37.8611986,127.7156856,827,강원특별자치도 춘천시 온의동
37.8829953,127.7276103,128,강원특별자치도 춘천시 요선동
37.9063707,127.7372628,958,강원특별자치도 춘천시 우두동
37.8770351,127.7323426,8,강원특별자치도 춘천시 운교동
37.8797637,127.7303082,17,강원특별자치도 춘천시 조양동
37.8772853,127.7265091,57,강원특별자치도 춘천시 죽림동
37.8443022,127.6993282,469,강원특별자치도 춘천시 칠전동
37.8539506,127.7315342,4010,강원특별자치도 춘천시 퇴계동
37.8704329,127.7377902,792,강원특별자치도 춘천시 효자동
37.8826435,127.7485821,4668,강원특별자치도 춘천시 후평동
37.0911189,129.0487802,139,강원특별자치도 태백시 동점동
37.1205516,128.9914767,64,강원특별자치도 태백시 문곡동
37.1225804,128.9502692,57,강원특별자치도 태백시 소도동
37.0989009,128.9937373,36,강원특별자치도 태백시 장성동
37.1252019,129.0587813,17,강원특별자치도 태백시 철암동
37.1990314,128.9464211,178,강원특별자치도 태백시 화전동
37.1712746,128.9669333,2017,강원특별자치도 태백시 황지동
37.6272812,128.7039204,106,강원특별자치도 평창군 대관령면 수하리
37.6386038,128.6625404,21,강원특별자치도 평창군 대관령면 용산리
37.7176668,128.6753804,140,강원특별자치도 평창군 대관령면 차항리
37.7099183,128.7176602,692,강원특별자치도 평창군 대관령면 횡계리
37.5048669,128.4671105,24,강원특별자치도 평창군 대화면 대화리
37.3396759,128.4948735,15,강원특별자치도 평창군 미탄면 창리
37.6037604,128.3210882,215,강원특별자치도 평창군 봉평면 무이리
37.6118996,128.3758853,41,강원특별자치도 평창군 봉평면 창동리
37.6225724,128.5747615,270,강원특별자치도 평창군 진부면 송정리
37.6386536,128.5377634,102,강원특별자치도 평창군 진부면 하진부리
37.3504216,128.3999456,29,강원특별자치도 평창군 평창읍 종부리
37.4035469,128.417167,14,강원특별자치도 평창군 평창읍 주진리
37.3728454,128.4052788,70,강원특별자치도 평창군 평창읍 중리
37.3662075,128.3981166,21,강원특별자치도 평창군 평창읍 천변리
37.3668442,128.3827286,35,강원특별자치도 평창군 평창읍 하리
37.615778,127.772086,5,강원특별자치도 홍천군 남면 양덕원리
37.704929,127.8953907,731,강원특별자치도 홍천군 홍천읍 갈마곡리
37.6898913,127.887952,535,강원특별자치도 홍천군 홍천읍 연봉리
37.6920412,127.890886,6,강원특별자치도 홍천군 홍천읍 진리
37.6704212,127.8412847,140,강원특별자치도 홍천군 홍천읍 하오안리
37.6995714,127.8821936,286,강원특별자치도 홍천군 홍천읍 희망리
38.0777327,127.519277,29,강원특별자치도 화천군 사내면 사창리
38.0819313,127.7114868,48,강원특별자치도 화천군 하남면 용암리
38.0880571,127.7194958,47,강원특별자치도 화천군 하남면 위라리
38.110328,127.6907027,11,강원특별자치도 화천군 화천읍 상리
38.1700928,127.7093384,25,강원특별자치도 화천군 화천읍 신읍리
38.1041615,127.7282288,13,강원특별자치도 화천군 화천읍 아리
38.1175251,127.7190584,8,강원특별자치도 화천군 화천읍 중리
37.5096339,128.2004115,125,강원특별자치도 횡성군 둔내면 둔방내리
37.5150926,128.234077,30,강원특별자치도 횡성군 둔내면 자포곡리
37.4846133,127.980638,115,강원특별자치도 횡성군 횡성읍 교항리
37.5004492,127.9919037,111,강원특별자치도 횡성군 횡성읍 북천리
37.487276,127.9901577,49,강원특별자치도 횡성군 횡성읍 읍상리
37.493322,127.9810925,325,강원특별자치도 횡성군 횡성읍 읍하리
37.4790576,127.9846037,50,강원특별자치도 횡성군 횡성읍 입석리
37.8108063,127.521086,60,경기도 가평군 가평읍 달전리
37.8229827,127.5034152,213,경기도 가평군 가평읍 대곡리
37.8398408,127.5175054,271,경기도 가평군 가평읍 읍내리
37.7653231,127.3985035,2,경기도 가평군 상면 덕현리
37.6874418,127.4882427,205,경기도 가평군 설악면 선촌리
37.6685086,127.4860673,15,경기도 가평군 설악면 신천리
37.820566,127.3467652,11,경기도 가평군 조종면 현리
37.7370004,127.4190182,434,경기도 가평군 청평면 청평리
37.707155,126.8987534,1524,경기도 고양시 덕양구 고양동
37.7016057,126.8623293,659,경기도 고양시 덕양구 관산동
37.5842241,126.8660251,179,경기도 고양시 덕양구 덕은동
37.6253741,126.8626625,951,경기도 고양시 덕양구 도내동
37.6419835,126.8959934,326,경기도 고양시 덕양구 동산동
37.6516035,126.8879992,522,경기도 고양시 덕양구 삼송동
37.6506105,126.8479415,2522,경기도 고양시 덕양구 성사동
37.6716526,126.880044,933,경기도 고양시 덕양구 신원동
37.6480647,126.8711876,353,경기도 고양시 덕양구 원흥동
37.661171,126.8271613,699,경기도 고양시 덕양구 주교동
37.6666952,126.9380146,275,경기도 고양시 덕양구 지축동
37.6232163,126.8123417,1228,경기도 고양시 덕양구 토당동
37.6195798,126.840709,7790,경기도 고양시 덕양구 행신동
37.5999345,126.8932203,409,경기도 고양시 덕양구 향동동
37.6373655,126.8346762,5816,경기도 고양시 덕양구 화정동
37.6591262,126.78344,2596,경기도 고양시 일산동구 마두동
37.6416766,126.789328,2309,경기도 고양시 일산동구 백석동
37.6970653,126.8416053,289,경기도 고양시 일산동구 사리현동
37.702567,126.7956664,83,경기도 고양시 일산동구 성석동
37.6789852,126.8139164,2219,경기도 고양시 일산동구 식사동
37.6477698,126.7587811,996,경기도 고양시 일산동구 장항동
37.6859281,126.784798,3021,경기도 고양시 일산동구 중산동
37.6674692,126.7983103,2603,경기도 고양시 일산동구 풍동
37.6911474,126.7204843,1318,경기도 고양시 일산서구 가좌동
37.6755299,126.7491618,1951,경기도 고양시 일산서구 대화동
37.6958453,126.7436838,1863,경기도 고양시 일산서구 덕이동
37.6833164,126.7700038,7378,경기도 고양시 일산서구 일산동
37.6712757,126.7618949,5419,경기도 고양시 일산서구 주엽동
37.6977493,126.7687793,5514,경기도 고양시 일산서구 탄현동
37.4154321,126.9794289,69,경기도 과천시 갈현동
37.4278203,126.9956643,572,경기도 과천시 별양동
37.4353247,126.9989104,449,경기도 과천시 부림동
37.421683,126.9916455,896,경기도 과천시 원문동
37.4339806,126.9769343,348,경기도 과천시 중앙동
37.4717061,126.8526377,2499,경기도 광명시 광명동
37.4397486,126.881855,1985,경기도 광명시 소하동
37.4212396,126.886224,474,경기도 광명시 일직동
37.479417,126.8689233,5547,경기도 광명시 철산동
37.4590598,126.8698947,7260,경기도 광명시 하안동
37.4104911,127.2528351,267,경기도 광주시 경안동
37.4286243,127.2563835,343,경기도 광주시 고산동
37.3433355,127.3500903,434,경기도 광주시 곤지암읍 곤지암리
37.3511188,127.3215249,529,경기도 광주시 곤지암읍 삼리
37.3496999,127.1671923,350,경기도 광주시 능평동
37.3198898,127.343175,124,경기도 광주시 도척면 진우리
37.4286243,127.2563835,99,경기도 광주시 매산동
37.4340242,127.2157401,89,경기도 광주시 목현동
37.4286243,127.2563835,362,경기도 광주시 문형동
37.4161522,127.1996397,126,경기도 광주시 삼동
37.4243608,127.2527969,678,경기도 광주시 송정동
37.3651189,127.1585978,889,경기도 광주시 신현동
37.4025193,127.2710185,909,경기도 광주시 쌍령동
37.3789917,127.2594064,1136,경기도 광주시 양벌동
37.4016771,127.2525928,396,경기도 광주시 역동
37.397686,127.2379395,216,경기도 광주시 장지동
37.3860147,127.282909,284,경기도 광주시 초월읍 대쌍령리
37.3977599,127.2968917,499,경기도 광주시 초월읍 도평리
37.3570542,127.3002177,467,경기도 광주시 초월읍 산이리
37.3686342,127.2910966,668,경기도 광주시 초월읍 쌍동리
37.3814388,127.3058146,33,경기도 광주시 초월읍 용수리
37.4175028,127.2892344,203,경기도 광주시 초월읍 지월리
37.4286243,127.2563835,79,경기도 광주시 추자동
37.4174818,127.236409,1020,경기도 광주시 탄벌동
37.3892159,127.2206166,2384,경기도 광주시 태전동
37.4400191,127.243507,186,경기도 광주시 회덕동
37.6328602,127.1174649,755,경기도 구리시 갈매동
37.5908684,127.1249542,1747,경기도 구리시 교문동
37.5945969,127.1489217,2438,경기도 구리시 수택동
37.6073559,127.1315739,4753,경기도 구리시 인창동
37.579275,127.1485268,822,경기도 구리시 토평동
37.3604698,126.9398315,4422,경기도 군포시 금정동
37.3484693,126.9411853,2735,경기도 군포시 당동
37.3518541,126.9539012,1002,경기도 군포시 당정동
37.3293308,126.918427,469,경기도 군포시 대야미동
37.3126264,126.922776,155,경기도 군포시 도마교동
37.3204807,126.951789,578,경기도 군포시 부곡동
37.3611337,126.9228713,9617,경기도 군포시 산본동
37.6255028,126.6936801,1889,경기도 김포시 감정동
37.64076,126.7154227,646,경기도 김포시 걸포동
37.6017974,126.7743732,2039,경기도 김포시 고촌읍 신곡리
37.596284,126.7469961,100,경기도 김포시 고촌읍 태리
37.6269012,126.7437397,71,경기도 김포시 고촌읍 향산리
37.6446147,126.626553,2204,경기도 김포시 구래동
37.6391581,126.6414909,1787,경기도 김포시 마산동
37.6260866,126.7112369,1673,경기도 김포시 북변동
37.6191197,126.7260889,1403,경기도 김포시 사우동
37.659736,126.6294968,458,경기도 김포시 양촌읍 양곡리
37.6128089,126.6056539,237,경기도 김포시 양촌읍 학운리
37.6560971,126.6854007,3738,경기도 김포시 운양동
37.6433403,126.6706113,5487,경기도 김포시 장기동
37.6833332,126.6173872,112,경기도 김포시 통진읍 도사리
37.6866634,126.5942524,383,경기도 김포시 통진읍 마송리
37.7002158,126.5994946,31,경기도 김포시 통진읍 서암리
37.6062083,126.7223549,4998,경기도 김포시 풍무동
37.7143682,126.6454542,4,경기도 김포시 하성면 마곡리
37.6320351,127.2121565,820,경기도 남양주시 금곡동
37.613017,127.1602763,5117,경기도 남양주시 다산동
37.6662632,127.114499,1928,경기도 남양주시 별내동
37.704133,127.1092633,1437,경기도 남양주시 별내면 청학리
37.7023647,127.1978898,1291,경기도 남양주시 오남읍 양지리
37.6900868,127.21367,3379,경기도 남양주시 오남읍 오남리
37.5914038,127.2168206,3516,경기도 남양주시 와부읍 덕소리
37.5774537,127.2415895,1909,경기도 남양주시 와부읍 도곡리
37.6524829,127.1918171,14,경기도 남양주시 진건읍 사능리
37.6664726,127.1638453,70,경기도 남양주시 진건읍 신월리
37.6723895,127.1866326,1110,경기도 남양주시 진건읍 용정리
37.6480812,127.1628882,69,경기도 남양주시 진건읍 진관리
37.7182395,127.2157855,2205,경기도 남양주시 진접읍 금곡리
37.7073051,127.157983,267,경기도 남양주시 진접읍 내각리
37.7470548,127.1801856,696,경기도 남양주시 진접읍 부평리
37.6949863,127.1781428,87,경기도 남양주시 진접읍 연평리
37.727069,127.1791384,1917,경기도 남양주시 진접읍 장현리
37.7327301,127.2306471,251,경기도 남양주시 진접읍 진벌리
37.7515263,127.2352865,19,경기도 남양주시 진접읍 팔야리
37.653505,127.1432136,1608,경기도 남양주시 퇴계원읍 퇴계원리
37.6464135,127.2351856,3708,경기도 남양주시 평내동
37.663816,127.249515,3970,경기도 남양주시 호평동
37.6858478,127.2965148,86,경기도 남양주시 화도읍 가곡리
37.6439528,127.2807726,754,경기도 남양주시 화도읍 녹촌리
37.6577197,127.3111023,1331,경기도 남양주시 화도읍 마석우리
37.6649279,127.2833956,1508,경기도 남양주시 화도읍 묵현리
37.6535569,127.3319806,157,경기도 남양주시 화도읍 월산리
37.622311,127.3005366,214,경기도 남양주시 화도읍 차산리
37.6361196,127.3180716,1602,경기도 남양주시 화도읍 창현리
37.9056547,127.1001978,28,경기도 동두천시 광암동
37.9337963,127.0593197,189,경기도 동두천시 동두천동
37.9221105,127.0786131,38,경기도 동두천시 보산동
37.9091302,127.0314992,168,경기도 동두천시 상패동
37.9038472,127.0635744,1909,경기도 동두천시 생연동
37.8824095,127.0623735,778,경기도 동두천시 송내동
37.8898981,127.0646453,2705,경기도 동두천시 지행동
37.4810715,126.8121514,1895,경기도 부천시 소사구 괴안동
37.4725952,126.8169679,1498,경기도 부천시 소사구 범박동
37.4725952,126.8169679,2484,경기도 부천시 소사구 소사본동
37.4817716,126.7627935,2801,경기도 부천시 소사구 송내동
37.4725952,126.8169679,590,경기도 부천시 소사구 심곡본동
37.4725952,126.8169679,736,경기도 부천시 소사구 옥길동
37.5236441,126.806214,898,경기도 부천시 오정구 고강동
37.520399,126.7879048,103,경기도 부천시 오정구 내동
37.5304772,126.7837191,107,경기도 부천시 오정구 삼정동
37.5126288,126.7989122,343,경기도 부천시 오정구 여월동
37.5304772,126.7837191,918,경기도 부천시 오정구 오정동
37.5236441,126.806214,1696,경기도 부천시 오정구 원종동
37.5132173,126.8159342,102,경기도 부천시 오정구 작동
37.5133856,126.7853256,337,경기도 부천시 원미구 도당동
37.5064378,126.8030795,6922,경기도 부천시 원미구 상동
37.482755,126.795654,25,경기도 부천시 원미구 소사동
37.4891977,126.7809338,658,경기도 부천시 원미구 심곡동
37.5064378,126.8030795,891,경기도 부천시 원미구 약대동
37.4900699,126.8072735,1336,경기도 부천시 원미구 역곡동
37.4946942,126.7923787,441,경기도 부천시 원미구 원미동
37.486664,126.764474,9442,경기도 부천시 원미구 중동
37.5024511,126.8023557,204,경기도 부천시 원미구 춘의동
37.3437715,127.1194183,3019,경기도 성남시 분당구 구미동
37.361295,127.1017221,1613,경기도 성남시 분당구 금곡동
37.3695249,127.0652371,171,경기도 성남시 분당구 대장동
37.3858512,127.1093695,791,경기도 성남시 분당구 백현동
37.3688975,127.1446439,1060,경기도 성남시 분당구 분당동
37.4020622,127.1085595,1164,경기도 성남시 분당구 삼평동
37.3822656,127.1344396,2912,경기도 성남시 분당구 서현동
37.3727376,127.1228562,2333,경기도 성남시 분당구 수내동
37.4062703,127.144621,3416,경기도 성남시 분당구 야탑동
37.3931224,127.060037,993,경기도 성남시 분당구 운중동
37.3959818,127.1314337,2380,경기도 성남시 분당구 이매동
37.3644088,127.1154987,5312,경기도 성남시 분당구 정자동
37.3927828,127.0933378,1065,경기도 성남시 분당구 판교동
37.4301857,127.0881739,101,경기도 성남시 수정구 고등동
37.4549348,127.1572993,616,경기도 성남시 수정구 단대동
37.4566022,127.1528671,6,경기도 성남시 수정구 산성동
37.4369688,127.1286326,446,경기도 성남시 수정구 수진동
37.4468491,127.146461,1498,경기도 성남시 수정구 신흥동
37.4641736,127.1663343,107,경기도 성남시 수정구 양지동
37.4677724,127.1470056,1085,경기도 성남시 수정구 창곡동
37.4464819,127.1298796,650,경기도 성남시 수정구 태평동
37.4475095,127.167266,1307,경기도 성남시 중원구 금광동
37.413862,127.159181,549,경기도 성남시 중원구 도촌동
37.4398658,127.1779859,1078,경기도 성남시 중원구 상대원동
37.4313493,127.1327162,658,경기도 성남시 중원구 성남동
37.4206369,127.1307659,539,경기도 성남시 중원구 여수동
37.4602224,127.1742816,763,경기도 성남시 중원구 은행동
37.439486,127.1510064,620,경기도 성남시 중원구 중앙동
37.430128,127.1465044,868,경기도 성남시 중원구 하대원동
37.2478551,126.9820704,942,경기도 수원시 권선구 고색동
37.2383242,127.0311552,692,경기도 수원시 권선구 곡반정동
37.2806457,126.9704299,1259,경기도 수원시 권선구 구운동
37.2500118,127.0269081,6107,경기도 수원시 권선구 권선동
37.2741955,126.945457,2227,경기도 수원시 권선구 금곡동
37.2886388,126.9401574,976,경기도 수원시 권선구 당수동
37.26893,126.9801311,655,경기도 수원시 권선구 서둔동
37.2548487,127.0098163,911,경기도 수원시 권선구 세류동
37.2424896,126.9673561,742,경기도 수원시 권선구 오목천동
37.2901282,126.9483893,532,경기도 수원시 권선구 입북동
37.2663172,126.9740001,481,경기도 수원시 권선구 탑동
37.258628,126.9971373,115,경기도 수원시 권선구 평동
37.2624934,126.9530358,1612,경기도 수원시 권선구 호매실동
37.2402889,127.0520174,4258,경기도 수원시 영통구 망포동
37.2617247,127.0489392,6157,경기도 수원시 영통구 매탄동
37.2480605,127.0473001,235,경기도 수원시 영통구 신동
37.2550653,127.0723937,9647,경기도 수원시 영통구 영통동
37.2733333,127.0568746,2226,경기도 수원시 영통구 원천동
37.3012958,127.0476724,1834,경기도 수원시 영통구 이의동
37.2872409,127.0726566,740,경기도 수원시 영통구 하동
37.3038129,127.0040977,565,경기도 수원시 장안구 송죽동
37.2942099,127.0276072,377,경기도 수원시 장안구 연무동
37.2911904,127.0135717,183,경기도 수원시 장안구 영화동
37.3036884,126.9692318,1790,경기도 수원시 장안구 율전동
37.3186343,126.9781339,325,경기도 수원시 장안구 이목동
37.2976197,126.9925385,6873,경기도 수원시 장안구 정자동
37.3040211,127.015092,2223,경기도 수원시 장안구 조원동
37.2963537,126.9777293,2316,경기도 수원시 장안구 천천동
37.3160824,126.9881956,378,경기도 수원시 장안구 파장동
37.2743325,127.0041544,279,경기도 수원시 팔달구 고등동
37.2719632,127.0129689,43,경기도 수원시 팔달구 교동
37.2679542,127.0162122,505,경기도 수원시 팔달구 매교동
37.2674475,127.0008681,22,경기도 수원시 팔달구 매산로1가
37.2671136,127.005113,267,경기도 수원시 팔달구 매산로2가
37.2710914,127.0094894,60,경기도 수원시 팔달구 매산로3가
37.2848222,127.0352449,1777,경기도 수원시 팔달구 우만동
37.2687372,127.0298932,2390,경기도 수원시 팔달구 인계동
37.2804274,127.0250348,98,경기도 수원시 팔달구 지동
37.2830848,126.9942341,3002,경기도 수원시 팔달구 화서동
37.3548922,126.7756851,1170,경기도 시흥시 거모동
37.3808926,126.816271,35,경기도 시흥시 광석동
37.35664,126.7788672,52,경기도 시흥시 군자동
37.3953335,126.8565501,201,경기도 시흥시 논곡동
37.3653508,126.8090217,669,경기도 시흥시 능곡동
37.4531735,126.7996144,1978,경기도 시흥시 대야동
37.4070197,126.8196476,247,경기도 시흥시 도창동
37.4158942,126.8115327,360,경기도 시흥시 매화동
37.3821149,126.8516816,157,경기도 시흥시 목감동
37.4182287,126.7894371,175,경기도 시흥시 미산동
37.37015,126.7237922,1968,경기도 시흥시 배곧동
37.3720403,126.8366907,249,경기도 시흥시 산현동
37.4386776,126.7800983,1267,경기도 시흥시 신천동
37.3838611,126.7582737,2529,경기도 시흥시 월곶동
37.4325467,126.8079311,2914,경기도 시흥시 은행동
37.3825212,126.7835285,1811,경기도 시흥시 장곡동
37.3798591,126.7976159,795,경기도 시흥시 장현동
37.358195,126.7512386,9248,경기도 시흥시 정왕동
37.3739773,126.8622108,952,경기도 시흥시 조남동
37.3496346,126.7621145,452,경기도 시흥시 죽율동
37.4035457,126.7769261,520,경기도 시흥시 포동
37.3944167,126.8145093,726,경기도 시흥시 하상동
37.3976673,126.8008846,693,경기도 시흥시 하중동
37.3187667,126.8314646,4982,경기도 안산시 단원구 고잔동
37.3435764,126.8060315,4434,경기도 안산시 단원구 선부동
37.3312441,126.7691931,1069,경기도 안산시 단원구 신길동
37.339718,126.8266935,36,경기도 안산시 단원구 와동
37.3312836,126.793294,1538,경기도 안산시 단원구 원곡동
37.3100301,126.8082704,3900,경기도 안산시 단원구 초지동
37.3085046,126.905219,1173,경기도 안산시 상록구 건건동
37.287601,126.8635848,2496,경기도 안산시 상록구 본오동
37.3345438,126.8680989,1,경기도 안산시 상록구 부곡동
37.2925044,126.8399402,3893,경기도 안산시 상록구 사동
37.2950813,126.9222908,197,경기도 안산시 상록구 사사동
37.3218055,126.8484567,2317,경기도 안산시 상록구 성포동
37.3658546,126.884281,187,경기도 안산시 상록구 수암동
37.3424257,126.8487507,1445,경기도 안산시 상록구 월피동
37.3088794,126.8553019,201,경기도 안산시 상록구 이동
37.3526713,126.8776923,35,경기도 안산시 상록구 장상동
37.0159753,127.2875449,66,경기도 안성시 가사동
37.0153102,127.2007551,225,경기도 안성시 공도읍 마정리
37.0129728,127.1782401,1138,경기도 안성시 공도읍 만정리
36.9900257,127.1627578,98,경기도 안성시 공도읍 승두리
37.0021777,127.1973893,316,경기도 안성시 공도읍 양기리
37.006952,127.1632415,1350,경기도 안성시 공도읍 용두리
36.9865345,127.1447098,1563,경기도 안성시 공도읍 진사리
37.0068108,127.3266756,443,경기도 안성시 금광면 신양복리
37.0127647,127.2687773,245,경기도 안성시 금산동
37.0308789,127.2698397,261,경기도 안성시 금석동
37.0046217,127.2746737,52,경기도 안성시 낙원동
37.0204069,127.2695,719,경기도 안성시 당왕동
37.0142215,127.2372242,4,경기도 안성시 대덕면 건지리
37.0045803,127.2247839,652,경기도 안성시 대덕면 내리
37.020313,127.2227674,412,경기도 안성시 대덕면 신령리
37.0542352,127.2616922,119,경기도 안성시 대덕면 진현리
37.0070371,127.271876,4,경기도 안성시 동본동
36.9698615,127.2418453,44,경기도 안성시 미양면 보체리
36.9547334,127.244733,64,경기도 안성시 미양면 양변리
37.0364612,127.2884273,74,경기도 안성시 보개면 기좌리
37.0071232,127.2790348,107,경기도 안성시 봉산동
37.0105618,127.2607047,376,경기도 안성시 석정동
37.0103626,127.2747032,118,경기도 안성시 숭인동
37.0200783,127.2551856,169,경기도 안성시 신소현동
37.0027871,127.2694708,1,경기도 안성시 신흥동
37.0049908,127.2602824,442,경기도 안성시 아양동
37.0066748,127.2485592,197,경기도 안성시 옥산동
37.0213892,127.1591897,112,경기도 안성시 원곡면 반제리
37.0364089,127.1392396,79,경기도 안성시 원곡면 외가천리
37.0046887,127.2685756,26,경기도 안성시 인지동
37.0896296,127.4694352,413,경기도 안성시 일죽면 송천리
37.0667159,127.4269438,175,경기도 안성시 죽산면 장원리
37.0806085,127.4223864,11,경기도 안성시 죽산면 죽산리
36.9770748,127.2816013,734,경기도 안성시 중리동
37.0044304,127.2717935,6,경기도 안성시 창전동
37.4052239,126.965203,4522,경기도 안양시 동안구 관양동
37.4132222,126.9466438,7738,경기도 안양시 동안구 비산동
37.3887438,126.9680004,5035,경기도 안양시 동안구 평촌동
37.3780332,126.9544688,7554,경기도 안양시 동안구 호계동
37.3966239,126.8897523,1784,경기도 안양시 만안구 박달동
37.4261432,126.9184737,3019,경기도 안양시 만안구 석수동
37.3888628,126.9163231,5521,경기도 안양시 만안구 안양동
37.8247638,127.0707723,1521,경기도 양주시 고암동
37.8048981,127.0754794,762,경기도 양주시 고읍동
37.7858936,127.0702526,788,경기도 양주시 광사동
37.8235981,126.9963683,176,경기도 양주시 광적면 가납리
37.8207291,126.97281,87,경기도 양주시 광적면 광석리
37.8979951,126.9774479,22,경기도 양주시 남면 신산리
37.8200897,127.0449773,1667,경기도 양주시 덕계동
37.8451569,127.0647213,1547,경기도 양주시 덕정동
37.7854723,127.0903612,281,경기도 양주시 만송동
37.7868618,126.9735373,424,경기도 양주시 백석읍 가업리
37.8058067,127.0088449,93,경기도 양주시 백석읍 방성리
37.768505,126.9898574,645,경기도 양주시 백석읍 복지리
37.802978,126.9828498,185,경기도 양주시 백석읍 오산리
37.7958019,126.9569306,6,경기도 양주시 백석읍 홍죽리
37.8022327,127.0402034,117,경기도 양주시 산북동
37.8024131,127.1048845,2502,경기도 양주시 삼숭동
37.8236363,127.0890726,1953,경기도 양주시 옥정동
37.7330329,126.9746774,213,경기도 양주시 장흥면 부곡리
37.719779,126.9383531,60,경기도 양주시 장흥면 일영리
37.8364121,127.0527334,307,경기도 양주시 회정동
37.4906793,127.4582542,285,경기도 양평군 강상면 병산리
37.4352403,127.5339855,6,경기도 양평군 개군면 하자포리
37.4140643,127.7446644,5,경기도 양평군 양동면 쌍학리
37.5579689,127.3303958,210,경기도 양평군 양서면 양수리
37.542112,127.3323933,10,경기도 양평군 양서면 용담리
37.497971,127.5050639,200,경기도 양평군 양평읍 공흥리
37.5062355,127.5241251,352,경기도 양평군 양평읍 백안리
37.4945468,127.4887109,627,경기도 양평군 양평읍 양근리
37.4776207,127.5063083,44,경기도 양평군 양평읍 창대리
37.4863982,127.5902252,220,경기도 양평군 용문면 다문리
37.4961665,127.6041698,26,경기도 양평군 용문면 마룡리
37.2237422,127.5409021,430,경기도 여주시 가남읍 신해리
37.1987266,127.5627816,75,경기도 여주시 가남읍 심석리
37.2063369,127.5413631,60,경기도 여주시 가남읍 태평리
37.2777326,127.6326284,552,경기도 여주시 교동
37.2485418,127.6654408,90,경기도 여주시 멱곡동
37.2916138,127.6465026,4,경기도 여주시 상동
37.291002,127.5959873,6,경기도 여주시 세종대왕면 신지리
37.2884819,127.6685048,133,경기도 여주시 연양동
37.3133568,127.651262,521,경기도 여주시 오학동
37.2845514,127.6109157,305,경기도 여주시 월송동
37.2569259,127.6428769,317,경기도 여주시 점봉동
37.293085,127.632317,22,경기도 여주시 창동
37.3037492,127.6621481,134,경기도 여주시 천송동
37.303161,127.6244449,89,경기도 여주시 하동
37.3155856,127.6342409,648,경기도 여주시 현암동
37.2876825,127.6382984,410,경기도 여주시 홍문동
38.1644627,127.1052756,4,경기도 연천군 신서면 도신리
38.1197571,127.0938528,56,경기도 연천군 연천읍 옥산리
38.0886779,127.0667262,6,경기도 연천군 연천읍 차탄리
38.1137699,127.0711665,40,경기도 연천군 연천읍 현가리
38.0434985,127.0663015,31,경기도 연천군 전곡읍 은대리
38.0190585,127.0683253,516,경기도 연천군 전곡읍 전곡리
38.0169867,127.1304303,191,경기도 연천군 청산면 백의리
37.9886992,127.0754413,1,경기도 연천군 청산면 초성리
37.1463642,127.0548689,456,경기도 오산시 가수동
37.1307635,127.0705488,1431,경기도 오산시 갈곶동
37.1333661,127.0845512,216,경기도 오산시 고현동
37.1608865,127.0547245,720,경기도 오산시 궐동
37.1736503,127.0464944,842,경기도 오산시 금암동
37.1792916,127.062228,271,경기도 오산시 내삼미동
37.139785,127.054296,599,경기도 오산시 누읍동
37.1536249,127.0890793,1693,경기도 오산시 부산동
37.1504389,127.0390507,396,경기도 오산시 서동
37.1875839,127.0398401,395,경기도 오산시 세교동
37.1679497,127.0625755,1191,경기도 오산시 수청동
37.1897675,127.0202533,823,경기도 오산시 양산동
37.1526052,127.0709609,1099,경기도 오산시 오산동
37.1556543,127.0726571,235,경기도 오산시 외삼미동
37.1412516,127.082662,3497,경기도 오산시 원동
37.161319,127.0731036,329,경기도 오산시 은계동
37.1765396,127.0263059,570,경기도 오산시 지곶동
37.129656,127.0843663,470,경기도 오산시 청호동
37.1355226,127.048597,20,경기도 오산시 탑동
37.2245277,127.1146879,483,경기도 용인시 기흥구 고매동
37.2382832,127.113503,1178,경기도 용인시 기흥구 공세동
37.2774751,127.1229841,2217,경기도 용인시 기흥구 구갈동
37.2856033,127.1632006,2353,경기도 용인시 기흥구 동백동
37.3050595,127.1218073,2746,경기도 용인시 기흥구 마북동
37.2458431,127.1262325,1977,경기도 용인시 기흥구 보라동
37.3093484,127.1071319,2556,경기도 용인시 기흥구 보정동
37.2655078,127.110881,1249,경기도 용인시 기흥구 상갈동
37.2645115,127.1413978,1992,경기도 용인시 기흥구 상하동
37.2400486,127.0750038,1071,경기도 용인시 기흥구 서천동
37.282795,127.1035705,2812,경기도 용인시 기흥구 신갈동
37.2939065,127.1298549,1733,경기도 용인시 기흥구 언남동
37.2730882,127.0825421,2997,경기도 용인시 기흥구 영덕동
37.2687633,127.1583795,3313,경기도 용인시 기흥구 중동
37.2388846,127.1395866,373,경기도 용인시 기흥구 지곡동
37.2966254,127.1509028,892,경기도 용인시 기흥구 청덕동
37.2506228,127.0913593,277,경기도 용인시 기흥구 하갈동
37.3412871,127.0765475,3155,경기도 용인시 수지구 동천동
37.3038257,127.0764957,6818,경기도 용인시 수지구 상현동
37.3193204,127.0605184,3781,경기도 용인시 수지구 성복동
37.332368,127.0575449,2692,경기도 용인시 수지구 신봉동
37.3295528,127.1234646,7306,경기도 용인시 수지구 죽전동
37.3238294,127.0922237,6710,경기도 용인시 수지구 풍덕천동
37.2480691,127.2274099,1319,경기도 용인시 처인구 고림동
37.2353137,127.2026542,952,경기도 용인시 처인구 김량장동
37.221157,127.1999062,47,경기도 용인시 처인구 남동
37.1516936,127.1664165,408,경기도 용인시 처인구 남사읍 아곡리
37.1699589,127.1747584,745,경기도 용인시 처인구 남사읍 완장리
37.2093664,127.2475336,429,경기도 용인시 처인구 마평동
37.3372701,127.2611835,237,경기도 용인시 처인구 모현읍 왕산리
37.3454658,127.2376187,235,경기도 용인시 처인구 모현읍 일산리
37.3088844,127.2562589,7,경기도 용인시 처인구 모현읍 초부리
37.1615619,127.3604899,27,경기도 용인시 처인구 백암면 근창리
37.2401961,127.165595,1305,경기도 용인시 처인구 삼가동
37.2159824,127.2842007,14,경기도 용인시 처인구 양지면 남곡리
37.238626,127.2866828,107,경기도 용인시 처인구 양지면 양지리
37.2379527,127.1874131,1163,경기도 용인시 처인구 역북동
37.2099494,127.2475005,3,경기도 용인시 처인구 운학동
37.2030121,127.317766,12,경기도 용인시 처인구 원삼면 좌항리
37.2584671,127.1990225,516,경기도 용인시 처인구 유방동
37.1363891,127.2038845,338,경기도 용인시 처인구 이동읍 송전리
37.1972261,127.2066937,597,경기도 용인시 처인구 이동읍 천리
37.2720232,127.2211793,786,경기도 용인시 처인구 포곡읍 둔전리
37.288029,127.237911,163,경기도 용인시 처인구 포곡읍 삼계리
37.2757053,127.2050696,96,경기도 용인시 처인구 포곡읍 영문리
37.2868062,127.2156135,47,경기도 용인시 처인구 포곡읍 전대리
37.3454169,126.9694423,56,경기도 의왕시 고천동
37.3774136,126.9839196,2545,경기도 의왕시 내손동
37.3221231,126.9565775,1575,경기도 의왕시 삼동
37.3591627,126.9838051,2908,경기도 의왕시 오전동
37.3421559,126.9927006,483,경기도 의왕시 왕곡동
37.3892899,127.0075103,224,경기도 의왕시 청계동
37.3961639,126.990322,1502,경기도 의왕시 포일동
37.3760761,127.0135481,172,경기도 의왕시 학의동
37.7441438,127.0206039,1180,경기도 의정부시 가능동
37.7303934,127.1037196,160,경기도 의정부시 고산동
37.7570793,127.0665587,1685,경기도 의정부시 금오동
37.7568796,127.114217,682,경기도 의정부시 낙양동
37.761515,127.0306591,926,경기도 의정부시 녹양동
37.7466757,127.1122399,3959,경기도 의정부시 민락동
37.7174681,127.1045072,164,경기도 의정부시 산곡동
37.7376767,127.0659888,6837,경기도 의정부시 신곡동
37.7308584,127.080813,2422,경기도 의정부시 용현동
37.7374154,127.0421997,1564,경기도 의정부시 의정부동
37.7072986,127.0632527,1841,경기도 의정부시 장암동
37.7122828,127.0343735,4437,경기도 의정부시 호원동
37.2869412,127.4669305,370,경기도 이천시 갈산동
37.2406785,127.4625634,121,경기도 이천시 고담동
37.2799781,127.4256614,259,경기도 이천시 관고동
37.2407286,127.4931249,665,경기도 이천시 대월면 사동리
37.2263904,127.4983043,68,경기도 이천시 대월면 초지리
37.2331276,127.3654246,25,경기도 이천시 마장면 덕평리
37.245014,127.3537866,179,경기도 이천시 마장면 오천리
37.30336,127.4726254,134,경기도 이천시 백사면 모전리
37.3209911,127.482935,84,경기도 이천시 백사면 조읍리
37.2459641,127.5159387,65,경기도 이천시 부발읍 가산리
37.2753754,127.4759385,30,경기도 이천시 부발읍 마암리
37.2867645,127.4882151,114,경기도 이천시 부발읍 무촌리
37.2960798,127.5095717,52,경기도 이천시 부발읍 신원리
37.2619324,127.4761143,589,경기도 이천시 부발읍 신하리
37.2592114,127.5011619,916,경기도 이천시 부발읍 아미리
37.2322358,127.5189254,379,경기도 이천시 부발읍 응암리
37.2949184,127.4179036,42,경기도 이천시 사음동
37.2965359,127.4394813,928,경기도 이천시 송정동
37.3170382,127.4105291,3,경기도 이천시 신둔면 남정리
37.3115853,127.4537293,58,경기도 이천시 신둔면 도봉리
37.3129275,127.4001649,130,경기도 이천시 신둔면 수광리
37.3123356,127.4267392,111,경기도 이천시 신둔면 수하리
37.276574,127.4606526,440,경기도 이천시 안흥동
37.1341456,127.6274055,46,경기도 이천시 장호원읍 노탑리
37.1191225,127.6226123,26,경기도 이천시 장호원읍 장호원리
37.112121,127.6110307,395,경기도 이천시 장호원읍 진암리
37.2415791,127.4515784,162,경기도 이천시 중리동
37.2619259,127.4302475,104,경기도 이천시 증일동
37.2932325,127.454737,1391,경기도 이천시 증포동
37.2834864,127.4452492,353,경기도 이천시 창전동
37.2419706,127.4387562,75,경기도 이천시 호법면 유산리
37.7850439,126.7463366,314,경기도 파주시 검산동
37.7854622,126.847653,40,경기도 파주시 광탄면 신산리
37.7516568,126.7865222,143,경기도 파주시 금릉동
37.758708,126.7702794,5898,경기도 파주시 금촌동
37.7366354,126.7266649,957,경기도 파주시 다율동
37.7122023,126.7232816,2687,경기도 파주시 동패동
37.7261988,126.7379897,3596,경기도 파주시 목동동
37.7162716,126.6899316,110,경기도 파주시 문발동
37.8681691,126.7740853,869,경기도 파주시 문산읍 당동리
37.8567285,126.7836664,534,경기도 파주시 문산읍 문산리
37.865471,126.8022073,602,경기도 파주시 문산읍 선유리
37.8535876,126.8613731,71,경기도 파주시 법원읍 가야리
37.8607515,126.8899817,11,경기도 파주시 법원읍 법원리
37.7652984,126.7859757,1528,경기도 파주시 아동동
37.7126597,126.7615914,2443,경기도 파주시 야당동
37.7757052,126.7613446,402,경기도 파주시 야동동
37.7291554,126.7596765,2666,경기도 파주시 와동동
37.9653414,126.9276876,3,경기도 파주시 적성면 구읍리
37.9436735,126.9155715,1,경기도 파주시 적성면 마지리
37.733394,126.8130044,689,경기도 파주시 조리읍 대원리
37.7431319,126.8228603,843,경기도 파주시 조리읍 봉일천리
37.7752628,126.6977608,4,경기도 파주시 탄현면 법흥리
37.8057862,126.7279786,3,경기도 파주시 탄현면 축현리
37.8311575,126.8405489,108,경기도 파주시 파주읍 연풍리
37.831802,126.8173464,10,경기도 파주시 파주읍 파주리
37.0446132,127.0831388,127,경기도 평택시 가재동
37.0439532,127.0393965,826,경기도 평택시 고덕동
37.0173181,127.0269095,784,경기도 평택시 고덕면 궁리
36.9823713,127.0884921,512,경기도 평택시 군문동
37.0874117,127.0693721,524,경기도 평택시 독곡동
37.0168124,127.0992348,2730,경기도 평택시 동삭동
36.9998316,127.1044181,2950,경기도 평택시 비전동
37.0669305,127.0564274,1222,경기도 평택시 서정동
37.012233,127.0724684,1921,경기도 평택시 세교동
36.9849697,127.1287425,828,경기도 평택시 소사동
37.0847081,127.0515305,187,경기도 평택시 신장동
36.9988399,126.9517668,254,경기도 평택시 안중읍 금곡리
36.9760547,126.9338915,277,경기도 평택시 안중읍 송담리
36.9883056,126.9361809,12,경기도 평택시 안중읍 안중리
36.996874,126.9221442,12,경기도 평택시 안중읍 학현리
36.9827877,126.9152021,1637,경기도 평택시 안중읍 현화리
37.0021932,126.9798155,41,경기도 평택시 오성면 숙성리
36.999858,127.1368076,1988,경기도 평택시 용이동
37.0582761,127.0681702,1890,경기도 평택시 이충동
37.0456712,127.063495,945,경기도 평택시 장당동
37.0584351,127.0859185,345,경기도 평택시 장안동
37.0097785,127.1241921,777,경기도 평택시 죽백동
37.0766545,127.0589101,1371,경기도 평택시 지산동
37.0178837,127.0660831,97,경기도 평택시 지제동
37.1140882,127.0783553,95,경기도 평택시 진위면 가곡리
37.1231328,127.0726512,143,경기도 평택시 진위면 갈곶리
37.1045474,127.0748567,345,경기도 평택시 진위면 견산리
37.1011036,127.093107,5,경기도 평택시 진위면 봉남리
37.0246132,126.9118635,755,경기도 평택시 청북읍 옥길리
37.0308075,127.0907429,73,경기도 평택시 칠괴동
37.0262041,127.1067358,850,경기도 평택시 칠원동
36.9928906,127.0765718,241,경기도 평택시 통복동
36.9673899,127.064037,16,경기도 평택시 팽성읍 객사리
36.9513877,127.0469911,1103,경기도 평택시 팽성읍 송화리
36.9614723,127.0441835,241,경기도 평택시 팽성읍 안정리
36.9731304,127.0891831,27,경기도 평택시 팽성읍 평궁리
36.9910946,127.0858422,193,경기도 평택시 평택동
36.9768542,126.8650966,149,경기도 평택시 포승읍 내기리
36.9922128,126.8588096,655,경기도 평택시 포승읍 도곡리
36.964026,126.8490052,348,경기도 평택시 포승읍 만호리
36.9720584,126.8872257,35,경기도 평택시 포승읍 방림리
36.998508,126.8843355,54,경기도 평택시 포승읍 석정리
36.9857905,127.1029296,968,경기도 평택시 합정동
36.9210758,126.9159536,34,경기도 평택시 현덕면 권관리
36.9634568,126.925079,67,경기도 평택시 현덕면 인광리
36.9722914,126.9095082,3,경기도 평택시 현덕면 화양리
37.8475116,127.1851797,7,경기도 포천시 가산면 마산리
37.8862401,127.2168372,149,경기도 포천시 군내면 구읍리
37.8576322,127.1485981,86,경기도 포천시 선단동
37.8317448,127.1385053,3143,경기도 포천시 소흘읍 송우리
37.7994016,127.1246214,186,경기도 포천시 소흘읍 이동교리
37.8138366,127.1521391,229,경기도 포천시 소흘읍 초가팔리
37.9164,127.2036873,123,경기도 포천시 신북면 가채리
37.9504281,127.174427,23,경기도 포천시 신북면 계류리
37.9287326,127.2352856,357,경기도 포천시 신북면 기지리
37.9001965,127.1847738,743,경기도 포천시 신읍동
37.8865608,127.1783855,35,경기도 포천시 어룡동
38.0834794,127.2821628,27,경기도 포천시 영북면 운천리
38.0000406,127.2582992,2,경기도 포천시 영중면 양문리
37.9440817,127.3324809,95,경기도 포천시 일동면 기산리
37.4988111,127.1661736,560,경기도 하남시 감이동
37.5046654,127.1556051,14,경기도 하남시 감일동
37.54565,127.2022273,2640,경기도 하남시 덕풍동
37.5675349,127.1913487,2002,경기도 하남시 망월동
37.5830893,127.1869122,836,경기도 하남시 선동
37.5436622,127.2154256,2276,경기도 하남시 신장동
37.5356542,127.2339817,1266,경기도 하남시 창우동
37.5502505,127.1899561,930,경기도 하남시 풍산동
37.4787366,127.1619105,766,경기도 하남시 학암동
37.2221093,127.0461947,1248,경기도 화성시 기산동
37.2244646,126.982725,1428,경기도 화성시 기안동
37.2043709,126.8176142,1375,경기도 화성시 남양읍 남양리
37.190871,126.8499012,186,경기도 화성시 남양읍 무송리
37.1840858,126.8127122,318,경기도 화성시 남양읍 신남리
37.2067427,127.0543476,3987,경기도 화성시 능동
37.2075872,126.7833899,42,경기도 화성시 마도면 두곡리
37.24867,126.9254847,5,경기도 화성시 매송면 원평리
37.2483029,126.9441143,48,경기도 화성시 매송면 천천리
37.1871633,127.122831,1297,경기도 화성시 목동
37.1975255,127.0714369,5104,경기도 화성시 반송동
37.2267973,127.0606522,2466,경기도 화성시 반월동
37.2304347,127.0346745,139,경기도 화성시 반정동
37.2063162,127.0393352,7060,경기도 화성시 병점동
37.2284826,126.9241542,19,경기도 화성시 봉담읍 내리
37.2211656,126.9623762,1200,경기도 화성시 봉담읍 동화리
37.2211767,126.9414006,792,경기도 화성시 봉담읍 상리
37.2012326,126.9769086,14,경기도 화성시 봉담읍 수기리
37.2334404,126.9547128,853,경기도 화성시 봉담읍 수영리
37.2130853,126.9740742,2419,경기도 화성시 봉담읍 와우리
37.1750874,126.9273363,155,경기도 화성시 봉담읍 유리
37.2503229,126.8590868,102,경기도 화성시 비봉면 삼화리
37.2244081,126.8699689,100,경기도 화성시 비봉면 양노리
37.1710952,127.11794,1153,경기도 화성시 산척동
37.2856787,126.8186264,518,경기도 화성시 새솔동
37.2131451,127.0778382,1332,경기도 화성시 석우동
37.1706882,127.100068,450,경기도 화성시 송동
37.2119423,127.0108343,511,경기도 화성시 송산동
37.2188028,126.7242441,85,경기도 화성시 송산면 사강리
37.2032228,126.7221875,111,경기도 화성시 송산면 육일리
37.1829144,127.1426561,28,경기도 화성시 신동
37.2018739,127.000233,947,경기도 화성시 안녕동
37.210601,127.1061838,2206,경기도 화성시 영천동
37.1908903,127.0946131,1243,경기도 화성시 오산동
37.0857502,126.8126598,485,경기도 화성시 우정읍 조암리
37.0635343,126.8116963,123,경기도 화성시 장안면 사곡리
37.0889247,126.8360239,6,경기도 화성시 장안면 어은리
37.1549779,127.1117994,831,경기도 화성시 장지동
37.1369965,127.0244077,74,경기도 화성시 정남면 덕절리
37.1607831,126.9898046,354,경기도 화성시 정남면 발산리
37.2153132,127.0338029,1133,경기도 화성시 진안동
37.1956769,127.1118926,3193,경기도 화성시 청계동
37.151013,126.9226605,248,경기도 화성시 팔탄면 가재리
37.1307521,126.8997393,718,경기도 화성시 향남읍 발안리
37.0998497,126.8958356,19,경기도 화성시 향남읍 상신리
37.1403108,126.9054146,302,경기도 화성시 향남읍 장짐리
37.1029366,126.917535,74,경기도 화성시 향남읍 하길리
37.128569,126.9252484,2035,경기도 화성시 향남읍 행정리
34.8486227,128.5982938,2,경상남도 거제시 거제면 동상리
34.8574354,128.5900798,21,경상남도 거제시 거제면 서정리
34.8732645,128.5812179,58,경상남도 거제시 거제면 옥산리
34.8839001,128.6229227,2781,경상남도 거제시 고현동
34.8803415,128.7362095,380,경상남도 거제시 능포동
34.895067,128.6917769,175,경상남도 거제시 덕포동
34.8664341,128.4856504,10,경상남도 거제시 둔덕면 학산리
34.8579648,128.6554162,318,경상남도 거제시 문동동
34.8798417,128.4802785,8,경상남도 거제시 사등면 덕호리
34.8933094,128.5744509,193,경상남도 거제시 사등면 사곡리
34.9159143,128.5273613,5,경상남도 거제시 사등면 성포리
34.9018483,128.5238762,60,경상남도 거제시 사등면 지석리
34.8657585,128.629979,2019,경상남도 거제시 상동동
34.8891927,128.6609532,699,경상남도 거제시 수월동
34.8686616,128.6832015,1968,경상남도 거제시 아주동
34.8777436,128.6483431,633,경상남도 거제시 양정동
34.9173552,128.6256324,103,경상남도 거제시 연초면 오비리
34.9116672,128.663581,58,경상남도 거제시 연초면 죽토리
34.9348742,128.6046908,16,경상남도 거제시 연초면 한내리
34.895067,128.6917769,2305,경상남도 거제시 옥포동
34.8416271,128.6873494,272,경상남도 거제시 일운면 소동리
34.8262086,128.7127958,77,경상남도 거제시 일운면 지세포리
34.858035,128.7232671,350,경상남도 거제시 장승포동
34.8928328,128.5989213,1608,경상남도 거제시 장평동
34.9541654,128.65809,15,경상남도 거제시 하청면 하청리
35.7112983,128.0108306,15,경상남도 거창군 가조면 마상리
35.7295818,128.0365235,4,경상남도 거창군 가조면 수월리
35.7052636,127.895092,141,경상남도 거창군 거창읍 가지리
35.6783937,127.9111467,183,경상남도 거창군 거창읍 김천리
35.6964441,127.9184324,544,경상남도 거창군 거창읍 대동리
35.6808757,127.9263441,276,경상남도 거창군 거창읍 대평리
35.690582,127.892579,361,경상남도 거창군 거창읍 상림리
35.6787936,127.8899026,118,경상남도 거창군 거창읍 송정리
35.6897398,127.9117133,172,경상남도 거창군 거창읍 중앙리
34.9924897,128.3946392,100,경상남도 고성군 거류면 당동리
34.9761878,128.4027162,3,경상남도 고성군 거류면 신용리
34.9787041,128.3019521,198,경상남도 고성군 고성읍 교사리
34.9730625,128.3316642,277,경상남도 고성군 고성읍 동외리
34.9746867,128.3184302,179,경상남도 고성군 고성읍 서외리
34.9738942,128.3223997,5,경상남도 고성군 고성읍 성내리
34.9816379,128.3326764,19,경상남도 고성군 고성읍 송학리
34.9657689,128.3215959,128,경상남도 고성군 고성읍 수남리
34.9932796,128.1813247,6,경상남도 고성군 상리면 척번정리
34.9172665,128.1205137,27,경상남도 고성군 하이면 덕호리
35.0584259,128.3711844,16,경상남도 고성군 회화면 배둔리
35.1718533,128.7909371,2289,경상남도 김해시 관동동
35.2512078,128.8724996,2758,경상남도 김해시 구산동
35.2064261,128.8232426,161,경상남도 김해시 내덕동
35.2424768,128.8631869,1763,경상남도 김해시 내동
35.2402151,128.8785357,92,경상남도 김해시 대성동
35.1855365,128.768396,1163,경상남도 김해시 대청동
35.2396582,128.8868344,458,경상남도 김해시 동상동
35.2000553,128.8152539,1239,경상남도 김해시 무계동
35.2287971,128.8769328,386,경상남도 김해시 봉황동
35.2120859,128.7958039,2650,경상남도 김해시 부곡동
35.2246561,128.8877064,379,경상남도 김해시 부원동
35.2263911,128.9222144,5,경상남도 김해시 불암동
35.2715069,128.8681553,4172,경상남도 김해시 삼계동
35.2001306,128.7868664,2140,경상남도 김해시 삼문동
35.2593319,128.9069125,1054,경상남도 김해시 삼방동
35.2258305,128.8989151,520,경상남도 김해시 삼정동
35.3282239,128.853314,6,경상남도 김해시 생림면 봉림리
35.2343995,128.880013,19,경상남도 김해시 서상동
35.1885964,128.8235498,1382,경상남도 김해시 신문동
35.2355177,128.9183503,503,경상남도 김해시 안동
35.2405154,128.9010724,1823,경상남도 김해시 어방동
35.2318361,128.8588835,4343,경상남도 김해시 외동
35.1672814,128.8087632,2134,경상남도 김해시 율하동
35.1863635,128.8220556,815,경상남도 김해시 장유동
35.212756,128.8708305,120,경상남도 김해시 전하동
35.2413303,128.8445367,376,경상남도 김해시 주촌면 선지리
35.2343442,128.8318904,414,경상남도 김해시 주촌면 천곡리
35.2318511,128.9233541,468,경상남도 김해시 지내동
35.243519,128.7378211,45,경상남도 김해시 진례면 송정리
35.2650277,128.7454701,56,경상남도 김해시 진례면 청천리
35.2523899,128.7601332,71,경상남도 김해시 진례면 초전리
35.2996765,128.7397107,601,경상남도 김해시 진영읍 여래리
35.300325,128.7053637,311,경상남도 김해시 진영읍 좌곤리
35.2830145,128.7658929,95,경상남도 김해시 진영읍 죽곡리
35.3081652,128.7236414,2593,경상남도 김해시 진영읍 진영리
35.214927,128.8462535,62,경상남도 김해시 풍유동
35.3251257,128.7930614,33,경상남도 김해시 한림면 장방리
35.1925526,128.8623523,8,경상남도 김해시 화목동
35.2176957,128.8600868,161,경상남도 김해시 흥동
34.8608456,127.8952196,26,경상남도 남해군 고현면 이어리
34.7696991,127.8794763,18,경상남도 남해군 남면 죽전리
34.8339782,127.9032143,1,경상남도 남해군 남해읍 남변리
34.8403914,127.8997234,40,경상남도 남해군 남해읍 북변리
34.8344669,127.8890508,11,경상남도 남해군 남해읍 서변리
34.8463865,127.8743191,160,경상남도 남해군 남해읍 아산리
34.8459435,127.9043003,35,경상남도 남해군 남해읍 차산리
34.7127487,128.0416035,5,경상남도 남해군 미조면 미조리
34.8236106,127.9982602,29,경상남도 남해군 삼동면 지족리
34.7907248,127.9642795,7,경상남도 남해군 이동면 무림리
34.8538543,128.0090427,11,경상남도 남해군 창선면 상죽리
35.4767402,128.779289,438,경상남도 밀양시 가곡동
35.5073271,128.7629993,350,경상남도 밀양시 교동
35.499168,128.7412919,568,경상남도 밀양시 내이동
35.4879339,128.784913,56,경상남도 밀양시 내일동
35.470376,128.6605577,24,경상남도 밀양시 무안면 무안리
35.4669033,128.7381423,12,경상남도 밀양시 부북면 전사포리
35.4009038,128.8630585,23,경상남도 밀양시 삼랑진읍 검세리
35.3896148,128.8157419,8,경상남도 밀양시 삼랑진읍 삼랑리
35.3990769,128.8385347,16,경상남도 밀양시 삼랑진읍 송지리
35.4838794,128.7520085,1178,경상남도 밀양시 삼문동
35.4623884,128.765582,221,경상남도 밀양시 상남면 예림리
35.371402,128.7203706,97,경상남도 밀양시 하남읍 수산리
35.3838191,128.7245494,46,경상남도 밀양시 하남읍 양동리
35.0547697,127.9640978,18,경상남도 사천시 곤양면 남문외리
35.0626543,127.956213,18,경상남도 사천시 곤양면 서정리
35.0583218,127.9607248,7,경상남도 사천시 곤양면 성내리
35.077786,127.9649867,11,경상남도 사천시 곤양면 송전리
34.935666,128.0566913,120,경상남도 사천시 대방동
34.931211,128.0808564,360,경상남도 사천시 동금동
34.938538,128.0675654,18,경상남도 사천시 동동
34.9469108,128.0728524,99,경상남도 사천시 동림동
34.9395967,128.0833874,307,경상남도 사천시 벌리동
35.0617777,128.0720229,1054,경상남도 사천시 사남면 월성리
35.0718508,128.0643936,174,경상남도 사천시 사남면 유천리
35.0431932,128.0920141,21,경상남도 사천시 사남면 화전리
35.0870873,128.1175418,218,경상남도 사천시 사천읍 구암리
35.073725,128.0779488,127,경상남도 사천시 사천읍 사주리
35.0810557,128.0969157,313,경상남도 사천시 사천읍 선인리
35.0893113,128.0833266,56,경상남도 사천시 사천읍 수석리
35.0868624,128.0936302,102,경상남도 사천시 사천읍 정의리
35.0811317,128.0895292,11,경상남도 사천시 사천읍 평화리
34.9252173,128.0742788,3,경상남도 사천시 서금동
34.9315749,128.0658459,42,경상남도 사천시 서동
35.0082135,127.9798838,7,경상남도 사천시 서포면 구평리
34.9447467,128.077011,50,경상남도 사천시 선구동
34.9648815,128.0528083,68,경상남도 사천시 송포동
34.9511697,128.0887097,541,경상남도 사천시 용강동
34.9995433,128.0657516,42,경상남도 사천시 용현면 덕곡리
35.0444117,128.0514311,6,경상남도 사천시 용현면 선진리
35.0363473,128.0733854,337,경상남도 사천시 용현면 신복리
35.0696209,128.0946753,449,경상남도 사천시 정동면 고읍리
35.0634764,128.0904547,294,경상남도 사천시 정동면 예수리
35.0708756,128.1180735,508,경상남도 사천시 정동면 풍정리
34.9703756,128.0784522,560,경상남도 사천시 죽림동
35.1013373,128.0960997,5,경상남도 사천시 축동면 배춘리
34.9320376,128.0969112,202,경상남도 사천시 향촌동
35.4189254,127.8596838,20,경상남도 산청군 금서면 매촌리
35.2987614,127.9580519,7,경상남도 산청군 단성면 성내리
35.4171715,127.8769219,7,경상남도 산청군 산청읍 산청리
35.4103565,127.8762063,46,경상남도 산청군 산청읍 옥산리
35.4176686,127.8859299,117,경상남도 산청군 산청읍 지리
35.2959881,127.855986,8,경상남도 산청군 시천면 사리
35.3045758,127.9832,176,경상남도 산청군 신안면 하정리
35.3518825,129.0174537,516,경상남도 양산시 교동
35.3337642,129.0324425,2525,경상남도 양산시 남부동
35.3328186,129.0470545,6,경상남도 양산시 다방동
35.3720927,129.1668092,1404,경상남도 양산시 덕계동
35.3005144,129.0382345,28,경상남도 양산시 동면 금산리
35.3248701,129.0664696,108,경상남도 양산시 동면 내송리
35.305739,129.0699027,83,경상남도 양산시 동면 사송리
35.3200011,129.034978,2299,경상남도 양산시 동면 석산리
35.3537542,129.0432396,537,경상남도 양산시 명동
35.3184586,128.9948221,3155,경상남도 양산시 물금읍 가촌리
35.3076149,128.9842867,260,경상남도 양산시 물금읍 물금리
35.3310231,129.0086844,6040,경상남도 양산시 물금읍 범어리
35.3461822,129.042575,388,경상남도 양산시 북부동
35.3537542,129.0432396,802,경상남도 양산시 북정동
35.4076305,129.1866185,1787,경상남도 양산시 삼호동
35.3932046,129.0814845,93,경상남도 양산시 상북면 대석리
35.4117668,129.0746847,406,경상남도 양산시 상북면 석계리
35.3888871,129.044432,224,경상남도 양산시 상북면 소토리
35.410134,129.1445966,1960,경상남도 양산시 소주동
35.3509642,129.0529608,1429,경상남도 양산시 신기동
35.3952778,129.0058686,315,경상남도 양산시 어곡동
35.4279561,129.1499765,223,경상남도 양산시 주남동
35.3952469,129.1398962,270,경상남도 양산시 주진동
35.3394809,129.0336203,1308,경상남도 양산시 중부동
35.3809951,129.1356821,3942,경상남도 양산시 평산동
35.4614202,129.0924814,8,경상남도 양산시 하북면 백록리
35.4933674,129.0894562,119,경상남도 양산시 하북면 순지리
35.4348551,129.1086658,22,경상남도 양산시 하북면 용연리
35.4902352,129.0503682,52,경상남도 양산시 하북면 지산리
35.4829612,129.079898,21,경상남도 양산시 하북면 초산리
35.463345,128.320959,9,경상남도 의령군 부림면 신반리
35.316854,128.2719671,98,경상남도 의령군 의령읍 동동리
35.3199843,128.2517866,66,경상남도 의령군 의령읍 서동리
35.3204274,128.2609031,6,경상남도 의령군 의령읍 중동리
35.1545435,128.1082293,1623,경상남도 진주시 가좌동
35.1835369,128.0874505,194,경상남도 진주시 강남동
35.2189617,128.1612581,1879,경상남도 진주시 금산면 장사리
35.2127382,128.13873,559,경상남도 진주시 금산면 중천리
35.1494112,128.0623873,318,경상남도 진주시 내동면 독산리
35.2730504,128.1650399,3,경상남도 진주시 대곡면 광석리
35.1809393,128.0808352,265,경상남도 진주시 망경동
35.2151893,128.0284213,136,경상남도 진주시 명석면 우수리
35.1607217,128.1715315,243,경상남도 진주시 문산읍 삼곡리
35.1711156,128.1575701,257,경상남도 진주시 문산읍 소문리
35.1946022,128.0745775,20,경상남도 진주시 봉곡동
35.2012181,128.0848232,10,경상남도 진주시 봉래동
35.1833708,128.111818,571,경상남도 진주시 상대동
35.2022704,128.0724969,534,경상남도 진주시 상봉동
35.1732328,128.1146501,493,경상남도 진주시 상평동
35.1815843,128.0667574,1717,경상남도 진주시 신안동
35.1952124,128.0939251,58,경상남도 진주시 옥봉동
35.2030523,128.0594652,38,경상남도 진주시 유곡동
35.1976376,128.0565642,844,경상남도 진주시 이현동
35.1913331,128.0740273,16,경상남도 진주시 인사동
35.1674457,128.2927402,9,경상남도 진주시 일반성면 개암리
35.1729882,128.2810319,24,경상남도 진주시 일반성면 창촌리
35.1756999,128.1177973,3,경상남도 진주시 장대동
35.1178934,128.1004036,287,경상남도 진주시 정촌면 예하리
35.1701569,128.0853287,985,경상남도 진주시 주약동
35.2399428,128.0787298,212,경상남도 진주시 집현면 봉강리
35.2053772,128.1165386,2393,경상남도 진주시 초전동
35.1752491,128.1415967,2320,경상남도 진주시 충무공동
35.1828995,128.0933826,156,경상남도 진주시 칠암동
35.1875226,128.0356496,72,경상남도 진주시 판문동
35.1696401,128.0531564,2679,경상남도 진주시 평거동
35.1972289,128.0828562,71,경상남도 진주시 평안동
35.1917008,128.1163362,1611,경상남도 진주시 하대동
35.162201,128.1217869,304,경상남도 진주시 호탄동
35.3899699,128.4798256,428,경상남도 창녕군 남지읍 남지리
35.4002462,128.4712159,183,경상남도 창녕군 남지읍 마산리
35.5480281,128.4694032,34,경상남도 창녕군 대지면 효정리
35.6135584,128.4731448,2,경상남도 창녕군 대합면 십이리
35.4102895,128.5059159,74,경상남도 창녕군 도천면 송진리
35.4405837,128.6061688,21,경상남도 창녕군 부곡면 부곡리
35.4510097,128.5318485,7,경상남도 창녕군 영산면 동리
35.4569334,128.5233036,49,경상남도 창녕군 영산면 서리
35.4649394,128.5294599,59,경상남도 창녕군 영산면 성내리
35.5489433,128.4944134,102,경상남도 창녕군 창녕읍 교리
35.5373044,128.4990625,22,경상남도 창녕군 창녕읍 교하리
35.5341946,128.5141217,95,경상남도 창녕군 창녕읍 말흘리
35.5443607,128.5175196,45,경상남도 창녕군 창녕읍 송현리
35.5374566,128.4921545,51,경상남도 창녕군 창녕읍 술정리
35.5356299,128.4840598,35,경상남도 창녕군 창녕읍 조산리
35.5393607,128.4774627,19,경상남도 창녕군 창녕읍 직교리
35.1622747,128.5759585,51,경상남도 창원시 마산합포구 가포동
35.2102806,128.5524239,551,경상남도 창원시 마산합포구 교방동
35.2143685,128.5687602,168,경상남도 창원시 마산합포구 교원동
35.1183254,128.5820345,8,경상남도 창원시 마산합포구 구산면 수정리
35.2029507,128.5768911,17,경상남도 창원시 마산합포구 남성동
35.1829132,128.5572614,79,경상남도 창원시 마산합포구 대내동
35.1922214,128.5611866,2,경상남도 창원시 마산합포구 대성동1가
35.193761,128.5624243,9,경상남도 창원시 마산합포구 대성동2가
35.1846026,128.5584701,21,경상남도 창원시 마산합포구 대외동
35.186191,128.5546134,17,경상남도 창원시 마산합포구 대창동
35.2046666,128.5783061,34,경상남도 창원시 마산합포구 동성동
35.1865988,128.5604516,22,경상남도 창원시 마산합포구 두월동2가
35.1879388,128.556861,20,경상남도 창원시 마산합포구 문화동
35.1899806,128.5604353,1,경상남도 창원시 마산합포구 반월동
35.2055146,128.5726096,2,경상남도 창원시 마산합포구 부림동
35.215208,128.5831979,621,경상남도 창원시 마산합포구 산호동
35.2127516,128.5745667,61,경상남도 창원시 마산합포구 상남동
35.2029217,128.5705412,19,경상남도 창원시 마산합포구 서성동
35.2041092,128.5741513,2,경상남도 창원시 마산합포구 수성동
35.1874543,128.5598327,1,경상남도 창원시 마산합포구 신창동
35.1971533,128.5723236,533,경상남도 창원시 마산합포구 신포동1가
35.2011949,128.5731531,107,경상남도 창원시 마산합포구 신포동2가
35.1942572,128.5647448,33,경상남도 창원시 마산합포구 신흥동
35.2059546,128.5805435,216,경상남도 창원시 마산합포구 오동동
35.1984068,128.5551063,377,경상남도 창원시 마산합포구 완월동
35.1865056,128.5636014,20,경상남도 창원시 마산합포구 월남동1가
35.1847912,128.5605618,8,경상남도 창원시 마산합포구 월남동3가
35.1809819,128.5590802,26,경상남도 창원시 마산합포구 월남동5가
35.1801439,128.5535865,2273,경상남도 창원시 마산합포구 월영동
35.1908572,128.5662509,411,경상남도 창원시 마산합포구 월포동
35.1851166,128.5559705,8,경상남도 창원시 마산합포구 유록동
35.2046029,128.5606236,570,경상남도 창원시 마산합포구 자산동
35.1957514,128.5642941,2,경상남도 창원시 마산합포구 장군동3가
35.2005683,128.5661789,7,경상남도 창원시 마산합포구 장군동5가
35.2085307,128.5746654,21,경상남도 창원시 마산합포구 중성동
35.1900033,128.5627559,3,경상남도 창원시 마산합포구 중앙동1가
35.19454,128.5668215,226,경상남도 창원시 마산합포구 중앙동2가
35.1984721,128.5680406,154,경상남도 창원시 마산합포구 중앙동3가
35.1173908,128.4815624,37,경상남도 창원시 마산합포구 진동면 사동리
35.1068685,128.5047239,64,경상남도 창원시 마산합포구 진동면 요장리
35.1185799,128.4883774,554,경상남도 창원시 마산합포구 진동면 진동리
35.1196743,128.4663871,45,경상남도 창원시 마산합포구 진북면 지산리
35.2064219,128.5744082,3,경상남도 창원시 마산합포구 창동
35.1847071,128.5622421,100,경상남도 창원시 마산합포구 창포동1가
35.1836312,128.5614848,59,경상남도 창원시 마산합포구 창포동2가
35.1819996,128.5607657,134,경상남도 창원시 마산합포구 창포동3가
35.2065539,128.5705937,66,경상남도 창원시 마산합포구 추산동
35.1798729,128.5631927,903,경상남도 창원시 마산합포구 해운동
35.153693,128.557571,303,경상남도 창원시 마산합포구 현동
35.1842301,128.5591395,9,경상남도 창원시 마산합포구 홍문동
35.1844302,128.5544938,1,경상남도 창원시 마산합포구 화영동
35.2553406,128.5907186,699,경상남도 창원시 마산회원구 구암동
35.2301493,128.4880968,1996,경상남도 창원시 마산회원구 내서읍 삼계리
35.2482741,128.4946215,405,경상남도 창원시 마산회원구 내서읍 상곡리
35.2274339,128.5167325,147,경상남도 창원시 마산회원구 내서읍 원계리
35.2462598,128.5171461,586,경상남도 창원시 마산회원구 내서읍 중리
35.2607738,128.5209106,1540,경상남도 창원시 마산회원구 내서읍 호계리
35.2246659,128.6061178,133,경상남도 창원시 마산회원구 봉암동
35.2305101,128.5710612,793,경상남도 창원시 마산회원구 석전동
35.2254855,128.5869027,3802,경상남도 창원시 마산회원구 양덕동
35.247743,128.5793471,441,경상남도 창원시 마산회원구 합성동
35.237374,128.551285,68,경상남도 창원시 마산회원구 회성동
35.2198208,128.5569663,521,경상남도 창원시 마산회원구 회원동
35.2070209,128.695811,2145,경상남도 창원시 성산구 가음동
35.2091701,128.6945334,115,경상남도 창원시 성산구 가음정동
35.1992168,128.6965822,554,경상남도 창원시 성산구 남산동
35.2102081,128.7024486,2293,경상남도 창원시 성산구 남양동
35.2193797,128.6620516,627,경상남도 창원시 성산구 내동
35.2100271,128.7156617,3237,경상남도 창원시 성산구 대방동
35.224825,128.644663,746,경상남도 창원시 성산구 대원동
35.2372959,128.6709319,3231,경상남도 창원시 성산구 반림동
35.2418252,128.6620027,746,경상남도 창원시 성산구 반지동
35.2193348,128.7050632,1801,경상남도 창원시 성산구 사파동
35.2212964,128.7125355,68,경상남도 창원시 성산구 사파정동
35.2183679,128.6844565,4170,경상남도 창원시 성산구 상남동
35.1920371,128.7040265,982,경상남도 창원시 성산구 성주동
35.2279481,128.6904494,533,경상남도 창원시 성산구 신월동
35.2113085,128.6372003,678,경상남도 창원시 성산구 신촌동
35.1792493,128.686713,627,경상남도 창원시 성산구 안민동
35.2118996,128.6749989,374,경상남도 창원시 성산구 외동
35.2340868,128.6818106,1303,경상남도 창원시 성산구 용호동
35.1733575,128.7166921,91,경상남도 창원시 성산구 천선동
35.3277672,128.694428,22,경상남도 창원시 의창구 대산면 가술리
35.2609683,128.6437863,947,경상남도 창원시 의창구 도계동
35.2891516,128.6999972,74,경상남도 창원시 의창구 동읍 무성리
35.2815579,128.7003437,72,경상남도 창원시 의창구 동읍 송정리
35.2920455,128.6809814,75,경상남도 창원시 의창구 동읍 신방리
35.2800763,128.6841896,372,경상남도 창원시 의창구 동읍 용잠리
35.2781938,128.7045974,308,경상남도 창원시 의창구 동읍 용정리
35.2679428,128.6090237,274,경상남도 창원시 의창구 동정동
35.2569182,128.6516998,1,경상남도 창원시 의창구 명곡동
35.2467548,128.6450782,351,경상남도 창원시 의창구 명서동
35.2468184,128.6627074,106,경상남도 창원시 의창구 봉곡동
35.2463017,128.6779042,110,경상남도 창원시 의창구 봉림동
35.2989714,128.5871345,1003,경상남도 창원시 의창구 북면 감계리
35.3442471,128.5796132,9,경상남도 창원시 의창구 북면 내곡리
35.3172033,128.5954965,13,경상남도 창원시 의창구 북면 동전리
35.3185241,128.5820008,492,경상남도 창원시 의창구 북면 무동리
35.3507294,128.6106785,278,경상남도 창원시 의창구 북면 신촌리
35.3050437,128.6076539,17,경상남도 창원시 의창구 북면 화천리
35.2597709,128.6203263,234,경상남도 창원시 의창구 서상동
35.264231,128.5954681,87,경상남도 창원시 의창구 소계동
35.2689132,128.6244847,397,경상남도 창원시 의창구 소답동
35.2551498,128.6274454,507,경상남도 창원시 의창구 중동
35.245455,128.6221935,1726,경상남도 창원시 의창구 팔용동
35.1594463,128.6831529,940,경상남도 창원시 진해구 경화동
35.1482617,128.6594527,35,경상남도 창원시 진해구 광화동
35.1467848,128.6605857,8,경상남도 창원시 진해구 근화동
35.0977792,128.7623664,474,경상남도 창원시 진해구 남문동
35.1143031,128.7777222,103,경상남도 창원시 진해구 남양동
35.1408603,128.6661143,42,경상남도 창원시 진해구 대죽동
35.1506216,128.6613149,2,경상남도 창원시 진해구 대흥동
35.1440107,128.7044685,42,경상남도 창원시 진해구 덕산동
35.123976,128.805758,55,경상남도 창원시 진해구 두동
35.1387568,128.7915987,193,경상남도 창원시 진해구 마천동
35.1470089,128.6621919,240,경상남도 창원시 진해구 부흥동
35.1277982,128.7412475,21,경상남도 창원시 진해구 북부동
35.1601284,128.7015374,1479,경상남도 창원시 진해구 석동
35.141791,128.7585352,14,경상남도 창원시 진해구 소사동
35.1426282,128.6703394,100,경상남도 창원시 진해구 속천동
35.1511315,128.6617645,13,경상남도 창원시 진해구 송학동
35.1449356,128.659551,10,경상남도 창원시 진해구 숭인동
35.0897753,128.7965286,115,경상남도 창원시 진해구 안골동
35.1572805,128.6632933,84,경상남도 창원시 진해구 여좌동
35.1049993,128.8167019,1045,경상남도 창원시 진해구 용원동
35.1514385,128.695961,458,경상남도 창원시 진해구 이동
35.1497411,128.6575261,10,경상남도 창원시 진해구 익선동
35.1497361,128.667373,8,경상남도 창원시 진해구 인사동
35.143202,128.6579971,14,경상남도 창원시 진해구 인의동
35.1504031,128.7206804,1405,경상남도 창원시 진해구 자은동
35.128269,128.7123709,936,경상남도 창원시 진해구 장천동
35.1479722,128.6705534,71,경상남도 창원시 진해구 제황산동
35.1474242,128.6596564,1,경상남도 창원시 진해구 중평동
35.1495687,128.6581908,4,경상남도 창원시 진해구 창선동
35.1041811,128.7985748,1527,경상남도 창원시 진해구 청안동
35.1519592,128.6664804,3,경상남도 창원시 진해구 충무동
35.1451852,128.6629527,16,경상남도 창원시 진해구 충의동
35.1698332,128.6660838,31,경상남도 창원시 진해구 태백동
35.1454898,128.6649713,35,경상남도 창원시 진해구 태평동
35.1363507,128.7116581,1740,경상남도 창원시 진해구 풍호동
35.1517577,128.6614847,35,경상남도 창원시 진해구 화천동
34.942695,128.4085715,227,경상남도 통영시 광도면 안정리
34.8832014,128.4061345,1614,경상남도 통영시 광도면 죽림리
34.9625775,128.4169783,11,경상남도 통영시 광도면 황리
34.8251795,128.4271291,310,경상남도 통영시 도남동
34.8443012,128.3928267,101,경상남도 통영시 도천동
34.84145,128.4307189,114,경상남도 통영시 동호동
34.8517541,128.4130055,14,경상남도 통영시 명정동
34.8598413,128.4282249,722,경상남도 통영시 무전동
34.8243857,128.4020289,810,경상남도 통영시 미수동
34.8223235,128.4149924,212,경상남도 통영시 봉평동
34.8544816,128.4249993,466,경상남도 통영시 북신동
34.8421819,128.419206,1,경상남도 통영시 서호동
34.8704632,128.4441356,355,경상남도 통영시 용남면 동달리
34.8987807,128.4538093,7,경상남도 통영시 용남면 원평리
34.8825087,128.4656884,119,경상남도 통영시 용남면 장평리
34.8556056,128.4460456,72,경상남도 통영시 용남면 화삼리
34.8415932,128.3916683,189,경상남도 통영시 인평동
34.8479613,128.4371946,259,경상남도 통영시 정량동
34.847806,128.4256544,34,경상남도 통영시 태평동
34.8415569,128.4229193,14,경상남도 통영시 항남동
34.9947671,127.8116763,3,경상남도 하동군 금남면 계천리
34.9523314,127.786112,41,경상남도 하동군 금성면 갈사리
35.1750733,127.8585523,4,경상남도 하동군 옥종면 청룡리
35.0083704,127.8851241,86,경상남도 하동군 진교면 고룡리
35.0310473,127.899531,62,경상남도 하동군 진교면 진교리
35.0618742,127.747837,54,경상남도 하동군 하동읍 광평리
35.0925328,127.7400742,13,경상남도 하동군 하동읍 두곡리
35.0663146,127.7590635,138,경상남도 하동군 하동읍 비파리
35.0555855,127.7740795,18,경상남도 하동군 하동읍 신기리
35.0735153,127.7475564,56,경상남도 하동군 하동읍 읍내리
35.2736007,128.4199677,172,경상남도 함안군 가야읍 검암리
35.272577,128.4015484,384,경상남도 함안군 가야읍 도항리
35.2777306,128.4099537,234,경상남도 함안군 가야읍 말산리
35.2713213,128.3570869,56,경상남도 함안군 군북면 소포리
35.2693551,128.3391264,12,경상남도 함안군 군북면 중암리
35.3564093,128.4261325,9,경상남도 함안군 대산면 구혜리
35.3204859,128.3730279,10,경상남도 함안군 법수면 윤외리
35.3744729,128.4837847,11,경상남도 함안군 칠서면 계내리
35.3230783,128.5164294,565,경상남도 함안군 칠서면 무릉리
35.3037374,128.5244706,501,경상남도 함안군 칠원읍 구성리
35.2896102,128.5587341,133,경상남도 함안군 칠원읍 무기리
35.2761933,128.5356747,14,경상남도 함안군 칠원읍 예곡리
35.280523,128.5100425,896,경상남도 함안군 칠원읍 오곡리
35.3075937,128.5093928,14,경상남도 함안군 칠원읍 용산리
35.5187728,127.8052236,7,경상남도 함양군 수동면 화산리
35.6297513,127.813404,20,경상남도 함양군 안의면 금천리
35.626292,127.8023722,10,경상남도 함양군 안의면 당본리
35.5322234,127.7281673,413,경상남도 함양군 함양읍 교산리
35.5154153,127.7178124,9,경상남도 함양군 함양읍 백연리
35.5154317,127.7369009,79,경상남도 함양군 함양읍 용평리
35.5217385,127.7220955,3,경상남도 함양군 함양읍 운림리
35.7734133,128.1459665,3,경상남도 합천군 가야면 야천리
35.7654813,128.1193914,1,경상남도 합천군 가야면 황산리
35.4170482,128.1178702,3,경상남도 합천군 삼가면 금리
35.7061855,128.1638769,6,경상남도 합천군 야로면 구정리
35.5623574,128.2716271,6,경상남도 합천군 초계면 아막리
35.5584751,128.2627559,5,경상남도 합천군 초계면 초계리
35.5785076,128.1609814,202,경상남도 합천군 합천읍 영창리
35.5658724,128.1599955,320,경상남도 합천군 합천읍 합천리
35.8255984,128.7473735,446,경상북도 경산시 계양동
35.8400192,128.7322101,654,경상북도 경산시 대평동
35.7989881,128.7438054,813,경상북도 경산시 백천동
35.8096658,128.7552614,956,경상북도 경산시 사동
35.8159839,128.7227214,212,경상북도 경산시 사정동
35.8189754,128.7394755,163,경상북도 경산시 삼북동
35.824068,128.7568157,188,경상북도 경산시 삼풍동
35.8137049,128.7434435,82,경상북도 경산시 상방동
35.8174402,128.7351097,20,경상북도 경산시 서상동
35.8130574,128.7398818,23,경상북도 경산시 신교동
35.845798,128.7614304,212,경상북도 경산시 압량읍 부적리
35.8389524,128.7699537,574,경상북도 경산시 압량읍 신대리
35.8611039,128.7864703,105,경상북도 경산시 압량읍 인안리
35.808077,128.7288044,1181,경상북도 경산시 옥곡동
35.8227367,128.7191573,1023,경상북도 경산시 옥산동
35.9403687,128.836439,64,경상북도 경산시 와촌면 덕촌리
35.8429804,128.7449809,21,경상북도 경산시 임당동
35.8260272,128.8258699,9,경상북도 경산시 자인면 교촌리
35.8133637,128.8259019,3,경상북도 경산시 자인면 동부리
35.8214264,128.8119586,28,경상북도 경산시 자인면 북사리
35.8139863,128.8176847,1,경상북도 경산시 자인면 서부리
35.8351073,128.7282114,1219,경상북도 경산시 정평동
35.8415812,128.7550067,69,경상북도 경산시 조영동
35.8287458,128.7350591,524,경상북도 경산시 중방동
35.8302227,128.7194444,1455,경상북도 경산시 중산동
35.8854018,128.8159447,624,경상북도 경산시 진량읍 봉회리
35.9007687,128.8220602,227,경상북도 경산시 진량읍 부기리
35.8882151,128.8241791,510,경상북도 경산시 진량읍 북리
35.869367,128.7994934,664,경상북도 경산시 진량읍 선화리
35.8730659,128.8218288,332,경상북도 경산시 진량읍 신상리
35.8942828,128.8329661,239,경상북도 경산시 진량읍 양기리
35.8586319,128.8162015,290,경상북도 경산시 진량읍 황제리
35.9089823,128.812356,689,경상북도 경산시 하양읍 금락리
35.919571,128.814944,42,경상북도 경산시 하양읍 도리리
35.9170896,128.8284424,333,경상북도 경산시 하양읍 동서리
35.9215513,128.7953604,183,경상북도 경산시 하양읍 서사리
35.8127393,129.4944544,79,경상북도 경주시 감포읍 감포리
35.8332453,129.4883437,5,경상북도 경주시 감포읍 오류리
35.807853,129.4842103,6,경상북도 경주시 감포읍 전동리
36.0043635,129.2819062,297,경상북도 경주시 강동면 유금리
35.8500797,129.1076088,117,경상북도 경주시 건천읍 건천리
35.8350144,129.0970722,7,경상북도 경주시 건천읍 조전리
35.8490365,129.0931581,56,경상북도 경주시 건천읍 천포리
35.7922546,129.134079,210,경상북도 경주시 건천읍 화천리
35.785667,129.2989014,21,경상북도 경주시 구정동
35.8409297,129.205674,68,경상북도 경주시 노서동
35.7977013,129.2707018,185,경상북도 경주시 도지동
35.8447433,129.206998,874,경상북도 경주시 동천동
35.8447433,129.206998,39,경상북도 경주시 마동
35.8983441,129.04053,6,경상북도 경주시 서면 아화리
35.8441706,129.2082059,45,경상북도 경주시 서부동
35.8545443,129.1980516,184,경상북도 경주시 성건동
35.8476714,129.2185134,58,경상북도 경주시 성동동
35.7693755,129.2974768,178,경상북도 경주시 시래동
35.9765618,129.2041348,9,경상북도 경주시 안강읍 근계리
36.0054906,129.1933115,1052,경상북도 경주시 안강읍 산대리
35.9908489,129.2346501,32,경상북도 경주시 안강읍 안강리
36.0018058,129.2216669,3,경상북도 경주시 안강읍 양월리
36.0205937,129.1614743,13,경상북도 경주시 안강읍 옥산리
35.7099675,129.4701373,11,경상북도 경주시 양남면 나아리
35.6931147,129.4664947,14,경상북도 경주시 양남면 읍천리
35.7370786,129.3434646,12,경상북도 경주시 외동읍 개곡리
35.6989576,129.3181019,84,경상북도 경주시 외동읍 구어리
35.6881375,129.3459673,128,경상북도 경주시 외동읍 모화리
35.7169563,129.3433489,156,경상북도 경주시 외동읍 입실리
35.87175,129.2294234,1425,경상북도 경주시 용강동
35.7858784,129.3378253,34,경상북도 경주시 진현동
35.9040847,129.2688386,133,경상북도 경주시 천북면 동산리
35.920946,129.2480139,121,경상북도 경주시 천북면 모아리
35.8474864,129.1701102,787,경상북도 경주시 충효동
35.8718505,129.1955121,701,경상북도 경주시 현곡면 금장리
35.8996233,129.2137831,77,경상북도 경주시 현곡면 라원리
35.886966,129.1656256,646,경상북도 경주시 현곡면 하구리
35.8684845,129.2166885,2922,경상북도 경주시 황성동
35.844582,129.2196488,3,경상북도 경주시 황오동
35.8281248,128.4426284,309,경상북도 고령군 다산면 상곡리
35.818454,128.4508432,15,경상북도 고령군 다산면 평리리
35.7175242,128.2701102,14,경상북도 고령군 대가야읍 고아리
35.7331341,128.2633256,38,경상북도 고령군 대가야읍 연조리
35.7223936,128.2835024,2,경상북도 고령군 대가야읍 장기리
35.7246502,128.2488205,64,경상북도 고령군 대가야읍 지산리
35.7425622,128.2645997,297,경상북도 고령군 대가야읍 쾌빈리
35.7065544,128.2459788,1,경상북도 고령군 쌍림면 고곡리
36.1422901,128.4014183,118,경상북도 구미시 거의동
36.1578961,128.3744484,11,경상북도 구미시 고아읍 괴평리
36.1583905,128.3480198,878,경상북도 구미시 고아읍 문성리
36.1801839,128.3513494,77,경상북도 구미시 고아읍 봉한리
36.2006573,128.3460459,13,경상북도 구미시 고아읍 예강리
36.2186174,128.3165766,217,경상북도 구미시 고아읍 오로리
36.1632968,128.3239462,1326,경상북도 구미시 고아읍 원호리
36.2019822,128.3278236,64,경상북도 구미시 고아읍 이례리
36.1906633,128.3457916,19,경상북도 구미시 고아읍 항곡리
36.101796,128.3808421,1315,경상북도 구미시 공단동
36.109278,128.3577972,617,경상북도 구미시 광평동
36.0877674,128.4476689,1915,경상북도 구미시 구평동
36.128679,128.417293,577,경상북도 구미시 구포동
36.1077146,128.3095685,1169,경상북도 구미시 남통동
36.1172459,128.3509342,2415,경상북도 구미시 도량동
36.1531951,128.310546,1626,경상북도 구미시 봉곡동
36.1250178,128.3795879,518,경상북도 구미시 비산동
36.0995804,128.3523917,616,경상북도 구미시 사곡동
36.1533702,128.4350861,823,경상북도 구미시 산동읍 신당리
36.1667248,128.4592478,716,경상북도 구미시 산동읍 인덕리
36.0874043,128.3455957,956,경상북도 구미시 상모동
36.2589137,128.3060204,210,경상북도 구미시 선산읍 교리
36.259532,128.2878125,124,경상북도 구미시 선산읍 노상리
36.2316278,128.3026735,4,경상북도 구미시 선산읍 동부리
36.2325387,128.2909833,36,경상북도 구미시 선산읍 이문리
36.235445,128.3147731,13,경상북도 구미시 선산읍 화조리
36.1185608,128.3465796,1854,경상북도 구미시 송정동
36.1213321,128.3635016,30,경상북도 구미시 신평동
36.0731187,128.3652564,464,경상북도 구미시 오태동
36.143983,128.4207925,3960,경상북도 구미시 옥계동
36.1265883,128.3388558,428,경상북도 구미시 원평동
36.1055486,128.4331691,847,경상북도 구미시 인의동
36.1138655,128.4038385,11,경상북도 구미시 임수동
36.0861046,128.365035,932,경상북도 구미시 임은동
36.1209718,128.5050617,28,경상북도 구미시 장천면 상장리
36.1366893,128.3518137,1,경상북도 구미시 지산동
36.1017646,128.414032,302,경상북도 구미시 진평동
36.1995288,128.3867786,31,경상북도 구미시 해평면 낙성리
36.1074922,128.3337237,2159,경상북도 구미시 형곡동
36.1156823,128.4330702,883,경상북도 구미시 황상동
36.1418406,128.1006699,225,경상북도 김천시 교동
36.1153655,128.114266,12,경상북도 김천시 남산동
36.1239529,128.0646832,61,경상북도 김천시 다수동
36.1446192,128.1427677,43,경상북도 김천시 대광동
36.1180633,128.1524503,585,경상북도 김천시 덕곡동
36.1250596,128.1252103,38,경상북도 김천시 모암동
36.1107767,128.075538,39,경상북도 김천시 백옥동
36.1178327,128.0970706,1363,경상북도 김천시 부곡동
36.1407644,128.0806277,57,경상북도 김천시 삼락동
36.1235307,128.1207134,69,경상북도 김천시 성내동
36.1366663,128.120262,1228,경상북도 김천시 신음동
36.1542309,128.2519915,249,경상북도 김천시 아포읍 국사리
36.1819349,128.1239727,6,경상북도 김천시 어모면 중왕리
36.1201975,128.1282048,11,경상북도 김천시 용두동
36.1245686,128.1865165,1179,경상북도 김천시 율곡동
36.1496284,128.1244075,128,경상북도 김천시 응명동
36.1172618,128.1468629,220,경상북도 김천시 지좌동
36.1255611,128.111636,92,경상북도 김천시 평화동
36.1126624,128.1199573,79,경상북도 김천시 황금동
36.6086959,128.1726201,31,경상북도 문경시 공평동
36.590899,128.1873031,689,경상북도 문경시 모전동
36.7397482,128.1145357,14,경상북도 문경시 문경읍 교촌리
36.7484956,128.1041655,3,경상북도 문경시 문경읍 상리
36.7312361,128.106938,40,경상북도 문경시 문경읍 하리
36.6356278,128.1701096,5,경상북도 문경시 신기동
36.5851878,128.2022996,5,경상북도 문경시 윤직동
36.5954877,128.1995351,105,경상북도 문경시 점촌동
36.605193,128.2073429,558,경상북도 문경시 흥덕동
36.8868176,128.7407815,180,경상북도 봉화군 봉화읍 내성리
36.9080788,128.7106658,2,경상북도 봉화군 봉화읍 해저리
36.9409392,128.916841,13,경상북도 봉화군 춘양면 의양리
36.4106458,128.1456872,462,경상북도 상주시 낙양동
36.4119925,128.1591596,68,경상북도 상주시 남성동
36.4230439,128.1646055,493,경상북도 상주시 냉림동
36.4213499,128.1528806,185,경상북도 상주시 무양동
36.4221818,128.182007,285,경상북도 상주시 복룡동
36.4173671,128.156185,5,경상북도 상주시 서문동
36.4177151,128.1609349,1,경상북도 상주시 서성동
36.4114236,128.1711587,110,경상북도 상주시 성동동
36.3985834,128.1580392,549,경상북도 상주시 신봉동
36.4145474,128.1986852,63,경상북도 상주시 외답동
36.4177008,128.164199,4,경상북도 상주시 인봉동
36.5711406,128.1736348,46,경상북도 상주시 함창읍 구향리
36.5633792,128.1692406,10,경상북도 상주시 함창읍 증촌리
35.9177434,128.2834318,108,경상북도 성주군 성주읍 경산리
35.9255537,128.2744751,154,경상북도 성주군 성주읍 백전리
35.9042194,128.2948445,30,경상북도 성주군 성주읍 성산리
35.9275996,128.2879619,6,경상북도 성주군 성주읍 예산리
35.9781445,128.2578258,20,경상북도 성주군 초전면 대장리
36.5692336,128.7210497,63,경상북도 안동시 금곡동
36.5252413,128.8003517,80,경상북도 안동시 남선면 이천리
36.5866004,128.6851056,48,경상북도 안동시 노하동
36.5621728,128.7188138,81,경상북도 안동시 당북동
36.2014905,128.8790233,11,경상북도 안동시 동부동
36.5710748,128.7253237,14,경상북도 안동시 법상동
36.5649837,128.7423017,62,경상북도 안동시 법흥동
36.5945233,128.6480193,71,경상북도 안동시 서후면 명리
36.5475154,128.7980881,5,경상북도 안동시 송천동
36.5753255,128.6918887,1358,경상북도 안동시 송현동
36.5413296,128.7057259,41,경상북도 안동시 수상동
36.573657,128.7358005,96,경상북도 안동시 신안동
36.5789495,128.7192854,326,경상북도 안동시 안기동
36.5871278,128.7328728,232,경상북도 안동시 안막동
36.5667057,128.728911,1052,경상북도 안동시 옥동
36.5763417,128.8070598,1531,경상북도 안동시 용상동
36.5733499,128.7105461,174,경상북도 안동시 운안동
36.5442303,128.7269342,664,경상북도 안동시 정하동
36.5630759,128.7269773,4,경상북도 안동시 천리동
36.5605334,128.7088115,522,경상북도 안동시 태화동
36.5686008,128.7151174,115,경상북도 안동시 평화동
36.573189,128.6635801,4,경상북도 안동시 풍산읍 막곡리
36.5740308,128.5594952,31,경상북도 안동시 풍산읍 안교리
36.3645223,129.3873596,4,경상북도 영덕군 강구면 강구리
36.3450759,129.3796451,1,경상북도 영덕군 강구면 삼사리
36.3609692,129.3779862,51,경상북도 영덕군 강구면 오포리
36.4098069,129.3664704,15,경상북도 영덕군 영덕읍 남석리
36.4152488,129.3740503,31,경상북도 영덕군 영덕읍 덕곡리
36.4119091,129.3814682,156,경상북도 영덕군 영덕읍 우곡리
36.4237292,129.3573517,13,경상북도 영덕군 영덕읍 화개리
36.5444892,129.422916,13,경상북도 영덕군 영해면 괴시리
36.5317367,129.389017,15,경상북도 영덕군 영해면 벌영리
36.5311757,129.4119904,28,경상북도 영덕군 영해면 성내리
36.5031212,129.435087,2,경상북도 영덕군 축산면 축산리
36.6754948,129.1143081,20,경상북도 영양군 영양읍 동부리
36.6666905,129.1021092,32,경상북도 영양군 영양읍 서부리
36.8203575,128.6044862,750,경상북도 영주시 가흥동
36.8581851,128.5151227,2,경상북도 영주시 봉현면 오현리
36.8527819,128.6399697,346,경상북도 영주시 상망동
36.8223226,128.6243763,210,경상북도 영주시 영주동
36.8810948,128.527764,5,경상북도 영주시 풍기읍 교촌리
36.8677478,128.5346413,148,경상북도 영주시 풍기읍 동부리
36.8752987,128.5240383,15,경상북도 영주시 풍기읍 서부리
36.8703565,128.5220059,61,경상북도 영주시 풍기읍 성내리
36.8287402,128.6332621,418,경상북도 영주시 하망동
36.8120935,128.6416647,1045,경상북도 영주시 휴천동
35.9794039,128.9734137,15,경상북도 영천시 고경면 단포리
35.9692657,128.9255287,12,경상북도 영천시 교촌동
35.9358681,128.8712259,135,경상북도 영천시 금호읍 교대리
35.9276757,128.8873482,33,경상북도 영천시 금호읍 냉천리
35.9280291,128.8704898,16,경상북도 영천시 금호읍 덕성리
35.9520031,128.8967307,600,경상북도 영천시 금호읍 원제리
35.9853904,128.952521,1866,경상북도 영천시 망정동
35.9725687,128.9315047,70,경상북도 영천시 문내동
35.9736175,128.9360153,126,경상북도 영천시 문외동
35.9338736,128.9532819,325,경상북도 영천시 봉동
35.9162808,129.0026532,27,경상북도 영천시 북안면 임포리
35.9623462,128.9240661,9,경상북도 영천시 성내동
36.0328554,128.7956428,18,경상북도 영천시 신녕면 완전리
35.9823927,128.944212,819,경상북도 영천시 야사동
35.9887224,128.9705695,9,경상북도 영천시 언하동
35.9559334,128.9149032,2,경상북도 영천시 오수동
35.961786,128.9504387,399,경상북도 영천시 완산동
35.9727052,128.9180593,74,경상북도 영천시 화룡동
36.6498203,128.4542731,103,경상북도 예천군 예천읍 남본리
36.6573986,128.4552434,3,경상북도 예천군 예천읍 노하리
36.6475792,128.4365783,93,경상북도 예천군 예천읍 대심리
36.6552717,128.4677648,57,경상북도 예천군 예천읍 동본리
36.6662172,128.4514589,34,경상북도 예천군 예천읍 백전리
36.6517974,128.4463393,22,경상북도 예천군 예천읍 서본리
36.6359306,128.4678965,69,경상북도 예천군 예천읍 청복리
36.4993421,128.2844797,2,경상북도 예천군 풍양면 낙상리
36.5765067,128.4795043,707,경상북도 예천군 호명읍 산합리
37.5137435,130.9003958,14,경상북도 울릉군 울릉읍 저동리
36.9572505,129.3908256,28,경상북도 울진군 근남면 노음리
36.7599781,129.4661003,11,경상북도 울진군 기성면 구산리
37.1266821,129.3590534,27,경상북도 울진군 북면 나곡리
37.1035486,129.3456974,79,경상북도 울진군 북면 부구리
36.7296377,129.3466837,4,경상북도 울진군 온정면 소태리
37.002477,129.3816663,78,경상북도 울진군 울진읍 고성리
37.0005737,129.4103543,7,경상북도 울진군 울진읍 연지리
36.9854268,129.3775216,11,경상북도 울진군 울진읍 읍남리
36.9921514,129.3994281,209,경상북도 울진군 울진읍 읍내리
37.0607208,129.4224946,59,경상북도 울진군 죽변면 죽변리
37.0629194,129.4037505,107,경상북도 울진군 죽변면 후정리
36.7287955,129.4410254,16,경상북도 울진군 평해읍 평해리
36.68969,129.4283006,131,경상북도 울진군 후포면 삼율리
36.6898485,129.45183,33,경상북도 울진군 후포면 후포리
36.304797,128.5722867,20,경상북도 의성군 봉양면 화전리
36.3908198,128.4417731,27,경상북도 의성군 안계면 용기리
36.3850834,128.4472225,13,경상북도 의성군 안계면 토매리
36.3413366,128.7110924,62,경상북도 의성군 의성읍 도동리
36.3472619,128.7311411,104,경상북도 의성군 의성읍 상리리
36.3671791,128.7247403,118,경상북도 의성군 의성읍 중리리
36.3633945,128.6977825,29,경상북도 의성군 의성읍 후죽리
35.6669574,128.6649969,33,경상북도 청도군 이서면 학산리
35.6399226,128.7424874,268,경상북도 청도군 청도읍 고수리
35.6500423,128.7656172,18,경상북도 청도군 청도읍 원정리
35.6405109,128.5967494,5,경상북도 청도군 풍각면 봉기리
35.6357028,128.7269282,81,경상북도 청도군 화양읍 범곡리
36.5286438,129.0578528,10,경상북도 청송군 진보면 각산리
36.5186541,129.0334912,72,경상북도 청송군 진보면 이촌리
36.522754,129.0446706,4,경상북도 청송군 진보면 진안리
36.418053,129.0685411,11,경상북도 청송군 청송읍 금곡리
36.4304763,129.0438414,22,경상북도 청송군 청송읍 덕리
36.4356372,129.0638898,17,경상북도 청송군 청송읍 월막리
35.9906659,128.3828129,426,경상북도 칠곡군 기산면 죽전리
35.9978914,128.5581335,10,경상북도 칠곡군 동명면 금암리
36.0554045,128.310645,330,경상북도 칠곡군 북삼읍 숭오리
36.0421986,128.3279597,104,경상북도 칠곡군 북삼읍 어로리
36.0574787,128.3475963,53,경상북도 칠곡군 북삼읍 율리
36.0689495,128.3379862,619,경상북도 칠곡군 북삼읍 인평리
36.0668693,128.4005751,1424,경상북도 칠곡군 석적읍 남율리
36.0679922,128.4459683,12,경상북도 칠곡군 석적읍 성곡리
36.0809806,128.4080389,662,경상북도 칠곡군 석적읍 중리
36.0109477,128.3837033,514,경상북도 칠곡군 약목면 관호리
36.0363376,128.3788395,9,경상북도 칠곡군 약목면 동안리
36.0388479,128.3521841,181,경상북도 칠곡군 약목면 복성리
35.9910662,128.4452387,11,경상북도 칠곡군 왜관읍 매원리
36.0009618,128.4098131,419,경상북도 칠곡군 왜관읍 석전리
35.982718,128.4014878,803,경상북도 칠곡군 왜관읍 왜관리
36.0002931,129.551213,49,경상북도 포항시 남구 구룡포읍 구룡포리
36.0007169,129.5303439,13,경상북도 포항시 남구 구룡포읍 눌태리
35.9805439,129.5264075,365,경상북도 포항시 남구 구룡포읍 병포리
36.0139617,129.3623782,215,경상북도 포항시 남구 대도동
35.9803632,129.3641063,29,경상북도 포항시 남구 대송면 제내리
36.0173682,129.3397074,1621,경상북도 포항시 남구 대잠동
35.997752,129.4869607,37,경상북도 포항시 남구 동해면
35.9832865,129.4367368,159,경상북도 포항시 남구 동해면 도구리
35.9865234,129.4712784,152,경상북도 포항시 남구 동해면 석리
35.9788596,129.4504928,22,경상북도 포항시 남구 동해면 신정리
35.9861351,129.4554253,332,경상북도 포항시 남구 동해면 약전리
36.0098395,129.3517996,299,경상북도 포항시 남구 상도동
36.0337458,129.3773447,276,경상북도 포항시 남구 송도동
35.9928046,129.3430163,104,경상북도 포항시 남구 연일읍 괴정리
35.9904994,129.3500621,289,경상북도 포항시 남구 연일읍 동문리
35.9994597,129.3429802,644,경상북도 포항시 남구 연일읍 생지리
35.9936718,129.3565792,352,경상북도 포항시 남구 연일읍 오천리
36.0032519,129.3094234,868,경상북도 포항시 남구 연일읍 유강리
35.9848526,129.3305737,70,경상북도 포항시 남구 연일읍 택전리
35.9817544,129.4119959,312,경상북도 포항시 남구 오천읍 구정리
35.9517994,129.3978106,1150,경상북도 포항시 남구 오천읍 문덕리
35.9306969,129.3934658,20,경상북도 포항시 남구 오천읍 문충리
35.9524383,129.4353508,213,경상북도 포항시 남구 오천읍 세계리
35.9728502,129.4207145,505,경상북도 포항시 남구 오천읍 용덕리
35.9364662,129.4104649,92,경상북도 포항시 남구 오천읍 용산리
35.9727592,129.4006008,261,경상북도 포항시 남구 오천읍 원리
36.0343253,129.3307685,226,경상북도 포항시 남구 이동
35.9866664,129.3993636,145,경상북도 포항시 남구 인덕동
35.8744348,129.5120762,5,경상북도 포항시 남구 장기면 양포리
36.0248133,129.321465,1492,경상북도 포항시 남구 지곡동
36.0000927,129.410716,78,경상북도 포항시 남구 청림동
36.0195974,129.371106,318,경상북도 포항시 남구 해도동
36.0074135,129.3315919,1076,경상북도 포항시 남구 효자동
36.0476465,129.3672101,11,경상북도 포항시 북구 대신동
36.0451555,129.364297,1,경상북도 포항시 북구 덕수동
36.0452789,129.370269,23,경상북도 포항시 북구 동빈1가
36.0403082,129.3696111,3,경상북도 포항시 북구 동빈2가
36.0638989,129.3802381,1894,경상북도 포항시 북구 두호동
36.0307179,129.3432755,1114,경상북도 포항시 북구 득량동
36.2331723,129.3482419,4,경상북도 포항시 북구 송라면 광천리
36.2428968,129.3702786,12,경상북도 포항시 북구 송라면 화진리
36.1230776,129.2694569,4,경상북도 포항시 북구 신광면 토성리
36.088747,129.386236,1699,경상북도 포항시 북구 양덕동
36.0399646,129.3508958,1641,경상북도 포항시 북구 용흥동
36.058079,129.3543464,1286,경상북도 포항시 북구 우현동
36.0783744,129.3790662,3053,경상북도 포항시 북구 장성동
36.0258622,129.3595859,410,경상북도 포항시 북구 죽도동
36.0695437,129.3615693,2318,경상북도 포항시 북구 창포동
36.1980685,129.337618,8,경상북도 포항시 북구 청하면 덕성리
36.2074687,129.364685,42,경상북도 포항시 북구 청하면 월포리
36.0532994,129.3692109,312,경상북도 포항시 북구 학산동
36.0348398,129.3444722,813,경상북도 포항시 북구 학잠동
36.0530532,129.3756709,165,경상북도 포항시 북구 항구동
36.07069,129.3971245,934,경상북도 포항시 북구 환호동
36.1029734,129.3489447,340,경상북도 포항시 북구 흥해읍 남성리
36.0564064,129.3113625,43,경상북도 포항시 북구 흥해읍 대련리
36.112823,129.3358372,261,경상북도 포항시 북구 흥해읍 마산리
36.1170204,129.3446085,144,경상북도 포항시 북구 흥해읍 약성리
36.1046063,129.3407934,98,경상북도 포항시 북구 흥해읍 옥성리
36.0669665,129.3273068,496,경상북도 포항시 북구 흥해읍 이인리
36.1089767,129.3536179,53,경상북도 포항시 북구 흥해읍 중성리
36.0936433,129.3168671,669,경상북도 포항시 북구 흥해읍 초곡리
36.1160481,129.35271,16,경상북도 포항시 북구 흥해읍 학성리
36.0783842,129.3066243,498,경상북도 포항시 북구 흥해읍 학천리
35.1257166,126.793181,877,광주광역시 광산구 도산동
35.2131402,126.819891,397,광주광역시 광산구 도천동
35.2244076,126.8256366,576,광주광역시 광산구 비아동
35.2057211,126.849061,1422,광주광역시 광산구 산월동
35.1718591,126.7941591,1029,광주광역시 광산구 산정동
35.1496629,126.77554,468,광주광역시 광산구 선암동
35.1536606,126.7942767,1290,광주광역시 광산구 소촌동
35.1360405,126.7990628,1057,광주광역시 광산구 송정동
35.1991112,126.8286342,1489,광주광역시 광산구 수완동
35.1830536,126.8325537,2639,광주광역시 광산구 신가동
35.1904279,126.8466246,2436,광주광역시 광산구 신창동
35.136205,126.8139183,259,광주광역시 광산구 신촌동
35.2189433,126.8481799,476,광주광역시 광산구 쌍암동
35.154977,126.8156906,2342,광주광역시 광산구 우산동
35.1737105,126.8236733,3487,광주광역시 광산구 운남동
35.163709,126.7756255,48,광주광역시 광산구 운수동
35.2143232,126.8374519,3189,광주광역시 광산구 월계동
35.1705741,126.8108021,1910,광주광역시 광산구 월곡동
35.193844,126.8102029,2753,광주광역시 광산구 장덕동
35.1963822,126.7964318,290,광주광역시 광산구 하남동
35.1831456,126.8081967,527,광주광역시 광산구 흑석동
35.1002934,126.9088448,604,광주광역시 남구 노대동
35.131019,126.9203707,1245,광주광역시 남구 방림동
35.1377238,126.9039715,786,광주광역시 남구 백운동
35.1246109,126.9122198,4244,광주광역시 남구 봉선동
35.143531,126.9125673,24,광주광역시 남구 사동
35.1444727,126.9072132,127,광주광역시 남구 서동
35.1110994,126.8822624,599,광주광역시 남구 송하동
35.0911164,126.8329082,18,광주광역시 남구 압촌동
35.1383992,126.9143568,605,광주광역시 남구 양림동
35.1448547,126.8958657,634,광주광역시 남구 월산동
35.1032563,126.8701896,258,광주광역시 남구 임암동
35.1308368,126.8938553,1625,광주광역시 남구 주월동
35.0822762,126.8337203,274,광주광역시 남구 지석동
35.1158914,126.8997433,2732,광주광역시 남구 진월동
35.0995246,126.8876025,617,광주광역시 남구 행암동
35.1599863,126.9210015,987,광주광역시 동구 계림동
35.1506036,126.9183879,1,광주광역시 동구 궁동
35.1487598,126.917446,2,광주광역시 동구 금남로2가
35.1499251,126.9163202,4,광주광역시 동구 금남로3가
35.1526945,126.9123386,33,광주광역시 동구 금남로5가
35.1540049,126.9152254,27,광주광역시 동구 대인동
35.1506601,126.9253546,2,광주광역시 동구 동명동
35.1565198,126.9341667,717,광주광역시 동구 산수동
35.0853634,126.9518884,20,광주광역시 동구 선교동
35.1174117,126.9455422,611,광주광역시 동구 소태동
35.1504946,126.9097055,40,광주광역시 동구 수기동
35.1132356,126.9243027,285,광주광역시 동구 용산동
35.1278473,126.9657803,332,광주광역시 동구 운림동
35.102505,126.9408248,162,광주광역시 동구 월남동
35.1485998,126.9422381,230,광주광역시 동구 지산동
35.1495283,126.9134598,44,광주광역시 동구 충장로4가
35.1513503,126.9112305,47,광주광역시 동구 충장로5가
35.1366458,126.9314971,898,광주광역시 동구 학동
35.1830178,126.9420292,1021,광주광역시 북구 각화동
35.1811657,126.8591876,2174,광주광역시 북구 동림동
35.1699348,126.9368339,1873,광주광역시 북구 두암동
35.1907644,126.8889947,1232,광주광역시 북구 매곡동
35.1891487,126.9272445,3412,광주광역시 북구 문흥동
35.2211456,126.8826478,470,광주광역시 북구 본촌동
35.1561693,126.9096149,60,광주광역시 북구 북동
35.2029742,126.9060736,1012,광주광역시 북구 삼각동
35.1687174,126.9001748,303,광주광역시 북구 신안동
35.2127329,126.8629464,2116,광주광역시 북구 신용동
35.2028169,126.8784582,1909,광주광역시 북구 양산동
35.1997674,126.8639289,1648,광주광역시 북구 연제동
35.1911878,126.9109171,1861,광주광역시 북구 오치동
35.2227049,126.8725718,596,광주광역시 북구 용두동
35.1792022,126.9004687,2312,광주광역시 북구 용봉동
35.1783226,126.9223986,391,광주광역시 북구 우산동
35.1787778,126.8782301,4100,광주광역시 북구 운암동
35.1586332,126.9047165,16,광주광역시 북구 유동
35.2104835,126.8961671,2938,광주광역시 북구 일곡동
35.1636761,126.8947579,543,광주광역시 북구 임동
35.1673353,126.9119815,392,광주광역시 북구 중흥동
35.1652263,126.9261684,185,광주광역시 북구 풍향동
35.1654177,126.8799212,855,광주광역시 서구 광천동
35.1325221,126.8555791,4394,광주광역시 서구 금호동
35.1602673,126.8724403,661,광주광역시 서구 내방동
35.154226,126.8882229,367,광주광역시 서구 농성동
35.1711787,126.8580189,735,광주광역시 서구 동천동
35.1423568,126.8411134,222,광주광역시 서구 마륵동
35.1528754,126.8625264,2255,광주광역시 서구 쌍촌동
35.1523053,126.9021328,449,광주광역시 서구 양동
35.1652373,126.8520055,853,광주광역시 서구 유촌동
35.1532447,126.841929,2622,광주광역시 서구 치평동
35.1254028,126.8753014,3591,광주광역시 서구 풍암동
35.1451161,126.8763863,4111,광주광역시 서구 화정동
36.2320397,128.5738378,22,대구광역시 군위군 군위읍 동부리
36.2348288,128.5647509,22,대구광역시 군위군 군위읍 서부리
35.837186,128.5769972,1342,대구광역시 남구 대명동
35.8292888,128.595772,1545,대구광역시 남구 봉덕동
35.8516459,128.6011007,886,대구광역시 남구 이천동
35.8494773,128.5403023,2115,대구광역시 달서구 감삼동
35.7987376,128.5277021,1279,대구광역시 달서구 대곡동
35.8236786,128.4996855,1026,대구광역시 달서구 대천동
35.7949355,128.5572017,3220,대구광역시 달서구 도원동
35.8541627,128.5614641,738,대구광역시 달서구 두류동
35.8337324,128.539658,1373,대구광역시 달서구 본동
35.8399563,128.5382448,1686,대구광역시 달서구 본리동
35.8138061,128.5552741,5376,대구광역시 달서구 상인동
35.844552,128.5562938,1052,대구광역시 달서구 성당동
35.8258304,128.5552235,899,대구광역시 달서구 송현동
35.8566613,128.4924756,675,대구광역시 달서구 신당동
35.8579641,128.5238973,4613,대구광역시 달서구 용산동
35.8281887,128.5275467,5196,대구광역시 달서구 월성동
35.8150108,128.513457,2230,대구광역시 달서구 유천동
35.8580846,128.5082057,2991,대구광역시 달서구 이곡동
35.8458064,128.5235969,1145,대구광역시 달서구 장기동
35.8547956,128.5390496,211,대구광역시 달서구 죽전동
35.8064541,128.5248886,1968,대구광역시 달서구 진천동
35.8445981,128.4737523,558,대구광역시 달서구 파호동
35.8508756,128.4829592,461,대구광역시 달서구 호산동
35.7946408,128.6214161,134,대구광역시 달성군 가창면 용계리
35.6510401,128.4189318,407,대구광역시 달성군 구지면 응암리
35.6548875,128.405731,90,대구광역시 달성군 구지면 창리
35.6634688,128.4027436,28,대구광역시 달성군 구지면 화산리
35.7798126,128.4186711,38,대구광역시 달성군 논공읍 금포리
35.7261312,128.439273,459,대구광역시 달성군 논공읍 남리
35.7299372,128.454907,758,대구광역시 달성군 논공읍 북리
35.860836,128.4577779,2262,대구광역시 달성군 다사읍 매곡리
35.8729312,128.4960775,1815,대구광역시 달성군 다사읍 서재리
35.8738163,128.4723647,687,대구광역시 달성군 다사읍 세천리
35.848782,128.4638606,1650,대구광역시 달성군 다사읍 죽곡리
35.7795239,128.4348821,135,대구광역시 달성군 옥포읍 강림리
35.7836955,128.4421299,453,대구광역시 달성군 옥포읍 교항리
35.7941103,128.4580356,561,대구광역시 달성군 옥포읍 본리리
35.6939489,128.4620275,1333,대구광역시 달성군 유가읍 봉리
35.7006995,128.4710521,124,대구광역시 달성군 유가읍 쌍계리
35.704635,128.4533021,9,대구광역시 달성군 현풍읍 상리
35.7069477,128.4388593,1,대구광역시 달성군 현풍읍 성하리
35.6881284,128.4333363,50,대구광역시 달성군 현풍읍 원교리
35.6923154,128.4507604,1301,대구광역시 달성군 현풍읍 중리
35.8133286,128.4969488,953,대구광역시 달성군 화원읍 구라리
35.7833768,128.5049282,893,대구광역시 달성군 화원읍 명곡리
35.7771971,128.5306081,416,대구광역시 달성군 화원읍 본리리
35.792052,128.4852214,86,대구광역시 달성군 화원읍 설화리
35.8085542,128.4837109,402,대구광역시 달성군 화원읍 성산리
35.8040786,128.5007212,508,대구광역시 달성군 화원읍 천내리
35.8857816,128.717728,1299,대구광역시 동구 각산동
35.8958664,128.6599544,314,대구광역시 동구 검사동
35.8717476,128.7383054,249,대구광역시 동구 괴전동
35.868296,128.7464431,66,대구광역시 동구 대림동
35.9230251,128.666094,64,대구광역시 동구 도동
35.866148,128.7176142,109,대구광역시 동구 동호동
35.8788165,128.66563,1153,대구광역시 동구 방촌동
35.9274143,128.6438776,839,대구광역시 동구 봉무동
35.9072322,128.6359597,392,대구광역시 동구 불로동
35.8711415,128.7529723,65,대구광역시 동구 사복동
35.8646317,128.7096694,60,대구광역시 동구 서호동
35.8812518,128.7515435,26,대구광역시 동구 숙천동
35.8685037,128.7049481,577,대구광역시 동구 신기동
35.885526,128.7302642,2340,대구광역시 동구 신서동
35.8839895,128.6244826,2509,대구광역시 동구 신암동
35.8726853,128.6233111,3702,대구광역시 동구 신천동
35.8827951,128.6844387,1,대구광역시 동구 신평동
35.8752642,128.6872417,358,대구광역시 동구 용계동
35.8799775,128.7042578,35,대구광역시 동구 율암동
35.8649308,128.6933844,1727,대구광역시 동구 율하동
35.8979396,128.6514981,119,대구광역시 동구 입석동
35.9503097,128.6424826,759,대구광역시 동구 지묘동
35.897756,128.6380288,222,대구광역시 동구 지저동
35.8802037,128.6428029,1164,대구광역시 동구 효목동
35.9147051,128.6218117,473,대구광역시 북구 검단동
35.8785213,128.5854879,236,대구광역시 북구 고성동1가
35.8798156,128.5841008,89,대구광역시 북구 고성동2가
35.8821629,128.5857042,168,대구광역시 북구 고성동3가
35.94118,128.5430254,854,대구광역시 북구 관음동
35.932309,128.5672855,3270,대구광역시 북구 구암동
35.9563646,128.5772015,2143,대구광역시 북구 국우동
35.9035662,128.526105,3,대구광역시 북구 금호동
35.8884956,128.579666,51,대구광역시 북구 노원동1가
35.8907242,128.5737652,146,대구광역시 북구 노원동2가
35.8955657,128.5674614,284,대구광역시 북구 노원동3가
35.8840372,128.6084325,723,대구광역시 북구 대현동
35.9259575,128.6112037,888,대구광역시 북구 동변동
35.9393284,128.558685,2762,대구광역시 북구 동천동
35.9103576,128.539191,679,대구광역시 북구 매천동
35.8974082,128.6219433,2262,대구광역시 북구 복현동
35.9011776,128.5127263,418,대구광역시 북구 사수동
35.900309,128.6054241,842,대구광역시 북구 산격동
35.9255156,128.5940632,1014,대구광역시 북구 서변동
35.958879,128.6133444,85,대구광역시 북구 연경동
35.9545773,128.5461792,2070,대구광역시 북구 읍내동
35.8799003,128.595449,1594,대구광역시 북구 칠성동2가
35.8942836,128.5883215,2903,대구광역시 북구 침산동
35.9225496,128.5447486,2830,대구광역시 북구 태전동
35.8977207,128.5384471,396,대구광역시 북구 팔달동
35.9531051,128.5663817,504,대구광역시 북구 학정동
35.8617046,128.5597704,1415,대구광역시 서구 내당동
35.8836662,128.5583647,460,대구광역시 서구 비산동
35.8817602,128.5770312,32,대구광역시 서구 원대동1가
35.8843704,128.5800305,19,대구광역시 서구 원대동2가
35.8858488,128.5750589,81,대구광역시 서구 원대동3가
35.8639516,128.5404871,1040,대구광역시 서구 중리동
35.8737645,128.5570647,1524,대구광역시 서구 평리동
35.830749,128.6970187,313,대구광역시 수성구 노변동
35.830645,128.6203657,598,대구광역시 수성구 두산동
35.8626017,128.6496679,2385,대구광역시 수성구 만촌동
35.8506959,128.7086851,1431,대구광역시 수성구 매호동
35.8103104,128.6563446,1814,대구광역시 수성구 범물동
35.8578459,128.6312963,4452,대구광역시 수성구 범어동
35.8400037,128.7204794,955,대구광역시 수성구 사월동
35.8334802,128.6119422,681,대구광역시 수성구 상동
35.8550692,128.610937,1207,대구광역시 수성구 수성동1가
35.855365,128.6154646,21,대구광역시 수성구 수성동2가
35.8552001,128.6191641,565,대구광역시 수성구 수성동3가
35.8626915,128.6161169,1146,대구광역시 수성구 수성동4가
35.8438547,128.6950597,1459,대구광역시 수성구 시지동
35.8363476,128.7094709,2603,대구광역시 수성구 신매동
35.8090257,128.6984581,318,대구광역시 수성구 욱수동
35.8448792,128.6122799,309,대구광역시 수성구 중동
35.8257604,128.6356703,2501,대구광역시 수성구 지산동
35.8125086,128.6144077,676,대구광역시 수성구 파동
35.842378,128.6330999,1811,대구광역시 수성구 황금동
35.8671832,128.5891555,109,대구광역시 중구 계산동2가
35.8733562,128.5988687,61,대구광역시 중구 교동
35.8611389,128.5861997,2090,대구광역시 중구 남산동
35.8754453,128.5790144,171,대구광역시 중구 달성동
35.8588322,128.6025873,698,대구광역시 중구 대봉동
35.8676435,128.5787398,600,대구광역시 중구 대신동
35.8765532,128.5833478,24,대구광역시 중구 도원동
35.8680636,128.5842648,81,대구광역시 중구 동산동
35.8723271,128.6036706,96,대구광역시 중구 동인동1가
35.8719058,128.6099338,106,대구광역시 중구 동인동3가
35.8678038,128.6104236,54,대구광역시 중구 동인동4가
35.8630349,128.5973111,106,대구광역시 중구 봉산동
35.8654542,128.6026537,57,대구광역시 중구 삼덕동2가
35.864373,128.6088153,204,대구광역시 중구 삼덕동3가
35.8724302,128.5871796,11,대구광역시 중구 서성로1가
35.8696962,128.5891445,6,대구광역시 중구 수동
35.87526,128.5858625,293,대구광역시 중구 수창동
35.8721089,128.5824483,3,대구광역시 중구 시장북로
35.8688227,128.5905683,2,대구광역시 중구 장관동
35.8746763,128.5981136,51,대구광역시 중구 태평로1가
35.8755674,128.5924974,29,대구광역시 중구 태평로2가
35.8770455,128.5862347,4,대구광역시 중구 태평로3가
36.3685399,127.4088828,403,대전광역시 대덕구 대화동
36.4334509,127.4252982,186,대전광역시 대덕구 덕암동
36.4410986,127.4066156,512,대전광역시 대덕구 목상동
36.3742032,127.4361417,2823,대전광역시 대덕구 법동
36.3598133,127.4531179,811,대전광역시 대덕구 비래동
36.4244033,127.4232831,28,대전광역시 대덕구 상서동
36.4490954,127.4244898,1059,대전광역시 대덕구 석봉동
36.3645869,127.4427671,1983,대전광역시 대덕구 송촌동
36.3939195,127.4168672,192,대전광역시 대덕구 신대동
36.4358615,127.4068418,48,대전광역시 대덕구 신일동
36.4436504,127.4583763,529,대전광역시 대덕구 신탄진동
36.3907366,127.4288927,170,대전광역시 대덕구 연축동
36.3538616,127.4140773,430,대전광역시 대덕구 오정동
36.407372,127.4270571,410,대전광역시 대덕구 와동
36.3793148,127.4252679,464,대전광역시 대덕구 읍내동
36.361593,127.4268601,269,대전광역시 대덕구 중리동
36.4319218,127.4334854,139,대전광역시 대덕구 평촌동
36.3467531,127.4493447,1059,대전광역시 동구 가양동
36.3076638,127.4584004,1072,대전광역시 동구 가오동
36.2847073,127.4821709,477,대전광역시 동구 낭월동
36.3290679,127.4451072,651,대전광역시 동구 대동
36.2953744,127.4682166,629,대전광역시 동구 대성동
36.3394493,127.4251646,482,대전광역시 동구 삼성동
36.343788,127.4336213,604,대전광역시 동구 성남동
36.3228975,127.4438795,409,대전광역시 동구 신흥동
36.3328069,127.461261,1613,대전광역시 동구 용운동
36.3539304,127.4344159,902,대전광역시 동구 용전동
36.3273777,127.4341776,21,대전광역시 동구 원동
36.3220969,127.4383958,561,대전광역시 동구 인동
36.3371843,127.4486807,194,대전광역시 동구 자양동
36.3314035,127.4297241,27,대전광역시 동구 중동
36.3113362,127.4519522,481,대전광역시 동구 천동
36.3137994,127.4641381,1724,대전광역시 동구 판암동
36.3471258,127.4257712,701,대전광역시 동구 홍도동
36.3113362,127.4519522,213,대전광역시 동구 효동
36.3027066,127.35174,877,대전광역시 서구 가수원동
36.3314037,127.3871093,685,대전광역시 서구 가장동
36.3474034,127.3694959,2248,대전광역시 서구 갈마동
36.2946984,127.333234,5722,대전광역시 서구 관저동
36.3385866,127.3805754,307,대전광역시 서구 괴정동
36.3343493,127.3732922,1626,대전광역시 서구 내동
36.31909,127.372474,1576,대전광역시 서구 도마동
36.3197641,127.3484399,1584,대전광역시 서구 도안동
36.3557875,127.3890025,5794,대전광역시 서구 둔산동
36.3679268,127.3825052,1091,대전광역시 서구 만년동
36.3276056,127.3763688,579,대전광역시 서구 변동
36.3023753,127.3766374,1614,대전광역시 서구 복수동
36.3379365,127.3950181,504,대전광역시 서구 용문동
36.3501808,127.3617674,3466,대전광역시 서구 월평동
36.3040849,127.3647477,1151,대전광역시 서구 정림동
36.3443488,127.390364,1894,대전광역시 서구 탄방동
36.3809466,127.3688275,19,대전광역시 유성구 가정동
36.3347878,127.2963079,440,대전광역시 유성구 계산동
36.4192464,127.396248,2070,대전광역시 유성구 관평동
36.3070218,127.3110633,321,대전광역시 유성구 교촌동
36.35476,127.3205233,217,대전광역시 유성구 구암동
36.3674097,127.3454477,140,대전광역시 유성구 궁동
36.3680877,127.3190151,645,대전광역시 유성구 노은동
36.3162135,127.3164971,434,대전광역시 유성구 대정동
36.3467568,127.2886136,279,대전광역시 유성구 덕명동
36.381413,127.3833177,356,대전광역시 유성구 도룡동
36.459174,127.3653262,116,대전광역시 유성구 둔곡동
36.3917075,127.3967268,245,대전광역시 유성구 문지동
36.3941604,127.2991757,642,대전광역시 유성구 반석동
36.3535812,127.3460745,2220,대전광역시 유성구 봉명동
36.4452004,127.3838674,460,대전광역시 유성구 봉산동
36.342342,127.3327949,983,대전광역시 유성구 상대동
36.4311944,127.380867,2780,대전광역시 유성구 송강동
36.3843061,127.3502901,691,대전광역시 유성구 신성동
36.3703199,127.3558014,764,대전광역시 유성구 어은동
36.4196165,127.3981847,560,대전광역시 유성구 용산동
36.2989961,127.3201322,885,대전광역시 유성구 원내동
36.3376649,127.345131,478,대전광역시 유성구 원신흥동
36.3619929,127.3326378,622,대전광역시 유성구 장대동
36.3952917,127.3990544,2138,대전광역시 유성구 전민동
36.3769377,127.3332279,439,대전광역시 유성구 죽동
36.3822168,127.304288,3568,대전광역시 유성구 지족동
36.3904238,127.332263,757,대전광역시 유성구 하기동
36.3145985,127.4222833,152,대전광역시 중구 대사동
36.3229238,127.4246503,658,대전광역시 중구 대흥동
36.3337002,127.4088206,1379,대전광역시 중구 목동
36.3179331,127.4357602,30,대전광역시 중구 문창동
36.3093896,127.4091649,2317,대전광역시 중구 문화동
36.3130924,127.4322437,111,대전광역시 중구 부사동
36.2949498,127.3971542,304,대전광역시 중구 사정동
36.2648464,127.404001,647,대전광역시 중구 산성동
36.3059004,127.4384519,7,대전광역시 중구 석교동
36.331239,127.4186951,618,대전광역시 중구 선화동
36.2819291,127.3780109,10,대전광역시 중구 안영동
36.3251991,127.4052143,582,대전광역시 중구 오류동
36.2975823,127.4519239,135,대전광역시 중구 옥계동
36.32991,127.4071291,617,대전광역시 중구 용두동
36.3170548,127.3963957,954,대전광역시 중구 유천동
36.3408899,127.4092204,1246,대전광역시 중구 중촌동
36.3246774,127.3932764,3025,대전광역시 중구 태평동
36.2983858,127.4367949,3,대전광역시 중구 호동
35.1804641,128.9186302,4,부산광역시 강서구 강동동
35.1244031,128.8561131,11,부산광역시 강서구 녹산동
35.2110866,128.9660824,28,부산광역시 강서구 대저1동
35.106961,128.9138659,6513,부산광역시 강서구 명지동
35.0901839,128.8774728,448,부산광역시 강서구 신호동
35.1459107,128.8248701,497,부산광역시 강서구 지사동
35.1041397,128.8750038,10,부산광역시 강서구 화전동
35.2543398,129.0841093,4351,부산광역시 금정구 구서동
35.2273025,129.1209882,89,부산광역시 금정구 금사동
35.2680246,129.080599,1044,부산광역시 금정구 남산동
35.244658,129.1024289,3903,부산광역시 금정구 부곡동
35.2179609,129.1033929,549,부산광역시 금정구 서동
35.2352857,129.0746874,3006,부산광역시 금정구 장전동
35.282125,129.069762,569,부산광역시 금정구 청룡동
35.2375557,129.127344,34,부산광역시 금정구 회동동
35.2551553,129.214874,780,부산광역시 기장군 기장읍 교리
35.2111827,129.1873142,194,부산광역시 기장군 기장읍 내리
35.2367817,129.2023633,881,부산광역시 기장군 기장읍 대라리
35.2275129,129.2315603,21,부산광역시 기장군 기장읍 대변리
35.2485584,129.2181534,716,부산광역시 기장군 기장읍 동부리
35.2472778,129.201862,601,부산광역시 기장군 기장읍 서부리
35.2153743,129.2215491,1,부산광역시 기장군 기장읍 연화리
35.2291433,129.2143987,922,부산광역시 기장군 기장읍 청강리
35.2619799,129.2231243,492,부산광역시 기장군 일광읍 삼성리
35.2753967,129.2415882,314,부산광역시 기장군 일광읍 이천리
35.3775766,129.256554,2,부산광역시 기장군 장안읍 명례리
35.3138125,129.1892654,516,부산광역시 기장군 정관읍 달산리
35.3166025,129.1658062,407,부산광역시 기장군 정관읍 매학리
35.3373741,129.1614434,2083,부산광역시 기장군 정관읍 모전리
35.3278363,129.1887736,372,부산광역시 기장군 정관읍 방곡리
35.3338895,129.1732717,2149,부산광역시 기장군 정관읍 용수리
35.2447663,129.1615612,88,부산광역시 기장군 철마면 고촌리
35.1130215,129.0801737,1023,부산광역시 남구 감만동
35.1407585,129.0924708,6251,부산광역시 남구 대연동
35.1409498,129.0726541,2578,부산광역시 남구 문현동
35.1123659,129.097643,701,부산광역시 남구 용당동
35.1148025,129.11437,7408,부산광역시 남구 용호동
35.1268082,129.0759817,826,부산광역시 남구 우암동
35.1369526,129.0555837,1158,부산광역시 동구 범일동
35.1322726,129.0384559,528,부산광역시 동구 수정동
35.1345788,129.0504355,480,부산광역시 동구 좌천동
35.120415,129.0378768,966,부산광역시 동구 초량동
35.1966791,129.0925668,1891,부산광역시 동래구 낙민동
35.2109417,129.0850894,1670,부산광역시 동래구 명륜동
35.2070205,129.1025573,1574,부산광역시 동래구 명장동
35.2067941,129.088323,453,부산광역시 동래구 복천동
35.1989038,129.0589199,4112,부산광역시 동래구 사직동
35.1985038,129.0885195,972,부산광역시 동래구 수안동
35.1959612,129.1054538,2999,부산광역시 동래구 안락동
35.2138813,129.0681841,5338,부산광역시 동래구 온천동
35.2044903,129.0921666,35,부산광역시 동래구 칠산동
35.146917,129.0323375,1806,부산광역시 부산진구 가야동
35.1538759,129.0206464,4764,부산광역시 부산진구 개금동
35.1673013,129.0289204,3767,부산광역시 부산진구 당감동
35.1670046,129.0600981,263,부산광역시 부산진구 범전동
35.1480849,129.0517815,2808,부산광역시 부산진구 범천동
35.1720576,129.0381043,3491,부산광역시 부산진구 부암동
35.1573832,129.0579227,1106,부산광역시 부산진구 부전동
35.1722041,129.0709718,2163,부산광역시 부산진구 양정동
35.1718412,129.0534907,1933,부산광역시 부산진구 연지동
35.1575101,129.0710937,3439,부산광역시 부산진구 전포동
35.1857804,129.0406831,885,부산광역시 부산진구 초읍동
35.1983964,129.0069571,2474,부산광역시 북구 구포동
35.2574554,129.0162455,3694,부산광역시 북구 금곡동
35.2150408,129.0101288,2405,부산광역시 북구 덕천동
35.2137707,129.0385265,4074,부산광역시 북구 만덕동
35.2383276,129.0253429,9405,부산광역시 북구 화명동
35.1547197,128.980204,120,부산광역시 사상구 감전동
35.1649004,128.985722,891,부산광역시 사상구 괘법동
35.1746452,128.9884548,1300,부산광역시 사상구 덕포동
35.1845775,129.0011091,2204,부산광역시 사상구 모라동
35.1750746,128.9722803,104,부산광역시 사상구 삼락동
35.129995,128.9706012,2306,부산광역시 사상구 엄궁동
35.1516217,129.0055614,3592,부산광역시 사상구 주례동
35.1399964,128.988081,2494,부산광역시 사상구 학장동
35.0893263,129.0044192,947,부산광역시 사하구 감천동
35.1034988,128.9942361,3197,부산광역시 사하구 괴정동
35.0723692,128.9913817,748,부산광역시 사하구 구평동
35.0571944,128.972922,6789,부산광역시 사하구 다대동
35.1123698,128.9831517,1809,부산광역시 사하구 당리동
35.0905869,128.966428,1677,부산광역시 사하구 신평동
35.0761373,128.9697088,3600,부산광역시 사하구 장림동
35.1099427,128.9524805,3434,부산광역시 사하구 하단동
35.0872287,129.0214787,240,부산광역시 서구 남부민동
35.1099927,129.0222335,65,부산광역시 서구 동대신동1가
35.1133801,129.0231501,129,부산광역시 서구 동대신동2가
35.1237185,129.0216224,146,부산광역시 서구 동대신동3가
35.1035635,129.0205932,36,부산광역시 서구 부민동1가
35.1037478,129.016214,215,부산광역시 서구 부민동3가
35.1065282,129.0209655,44,부산광역시 서구 부용동1가
35.1075131,129.015079,407,부산광역시 서구 서대신동1가
35.1095998,129.0112198,347,부산광역시 서구 서대신동2가
35.125843,129.0098889,849,부산광역시 서구 서대신동3가
35.1002404,129.0130283,28,부산광역시 서구 아미동2가
35.0705034,129.0143024,774,부산광역시 서구 암남동
35.0941641,129.017513,1,부산광역시 서구 초장동
35.095526,129.0245249,14,부산광역시 서구 충무동1가
35.0952752,129.0222744,34,부산광역시 서구 충무동2가
35.0938662,129.0222391,2,부산광역시 서구 충무동3가
35.0994065,129.0233096,165,부산광역시 서구 토성동1가
35.1002138,129.0215061,29,부산광역시 서구 토성동2가
35.1002544,129.0203254,20,부산광역시 서구 토성동3가
35.0974938,129.0217352,135,부산광역시 서구 토성동5가
35.1595587,129.1093579,3476,부산광역시 수영구 광안동
35.1441426,129.1096811,3247,부산광역시 수영구 남천동
35.1729616,129.1047043,2185,부산광역시 수영구 망미동
35.1597153,129.1255812,2230,부산광역시 수영구 민락동
35.1703559,129.1168872,654,부산광역시 수영구 수영동
35.1885651,129.0674418,5856,부산광역시 연제구 거제동
35.1790684,129.0912932,9676,부산광역시 연제구 연산동
35.0902415,129.0391965,83,부산광역시 영도구 남항동1가
35.0883086,129.0374246,9,부산광역시 영도구 남항동2가
35.0850908,129.0371062,34,부산광역시 영도구 남항동3가
35.0929754,129.0379499,68,부산광역시 영도구 대교동1가
35.0916832,129.0410036,31,부산광역시 영도구 대교동2가
35.0910712,129.0349769,101,부산광역시 영도구 대평동1가
35.0708907,129.0745195,3031,부산광역시 영도구 동삼동
35.0944361,129.0402212,72,부산광역시 영도구 봉래동1가
35.0946243,129.0428686,228,부산광역시 영도구 봉래동2가
35.0938864,129.0449798,72,부산광역시 영도구 봉래동3가
35.0921206,129.0489933,117,부산광역시 영도구 봉래동4가
35.093534,129.0520328,88,부산광역시 영도구 봉래동5가
35.0866297,129.0479975,65,부산광역시 영도구 신선동2가
35.08228,129.0498223,11,부산광역시 영도구 신선동3가
35.09042,129.0439054,13,부산광역시 영도구 영선동1가
35.0882639,129.0425915,110,부산광역시 영도구 영선동2가
35.0858333,129.0413515,15,부산광역시 영도구 영선동3가
35.0791726,129.0458822,453,부산광역시 영도구 영선동4가
35.0914605,129.0613241,859,부산광역시 영도구 청학동
35.1078152,129.0361144,16,부산광역시 중구 대창동1가
35.1043723,129.0328402,47,부산광역시 중구 대청동1가
35.1029714,129.0310213,7,부산광역시 중구 대청동2가
35.1061482,129.0298682,61,부산광역시 중구 대청동4가
35.1074908,129.0339538,24,부산광역시 중구 동광동5가
35.1068055,129.0258577,82,부산광역시 중구 보수동1가
35.1050904,129.0234461,98,부산광역시 중구 보수동2가
35.1042716,129.0222888,122,부산광역시 중구 보수동3가
35.1005854,129.025756,19,부산광역시 중구 부평동2가
35.102165,129.0226935,98,부산광역시 중구 부평동4가
35.1013189,129.0303689,15,부산광역시 중구 신창동1가
35.1012536,129.0294534,2,부산광역시 중구 신창동2가
35.1120695,129.0321048,347,부산광역시 중구 영주동
35.1071441,129.0387649,5,부산광역시 중구 중앙동4가
35.2262759,129.1524562,1286,부산광역시 해운대구 반송동
35.2049391,129.1315245,6194,부산광역시 해운대구 반여동
35.1829714,129.2004548,318,부산광역시 해운대구 송정동
35.1743762,129.147899,7187,부산광역시 해운대구 우동
35.1857593,129.1282719,7977,부산광역시 해운대구 재송동
35.1844545,129.1742446,10368,부산광역시 해운대구 좌동
35.1606604,129.1735137,4232,부산광역시 해운대구 중동
37.4802905,127.0626272,3329,서울특별시 강남구 개포동
37.5136787,127.0317124,872,서울특별시 강남구 논현동
37.4991887,127.0633458,2500,서울특별시 강남구 대치동
37.4885906,127.0452757,2599,서울특별시 강남구 도곡동
37.513975,127.0561274,1655,서울특별시 강남구 삼성동
37.4643619,127.1045971,357,서울특별시 강남구 세곡동
37.4863964,127.1006971,1254,서울특별시 강남구 수서동
37.5235332,127.0230659,197,서울특별시 강남구 신사동
37.5271478,127.0334517,1353,서울특별시 강남구 압구정동
37.5000776,127.0385419,2243,서울특별시 강남구 역삼동
37.4708103,127.1120705,17,서울특별시 강남구 율현동
37.4880579,127.0828672,1160,서울특별시 강남구 일원동
37.4762779,127.1003704,440,서울특별시 강남구 자곡동
37.5233931,127.0479736,1130,서울특별시 강남구 청담동
37.5675265,127.1729313,817,서울특별시 강동구 강일동
37.5638217,127.1582312,1952,서울특별시 강동구 고덕동
37.5396157,127.1459293,2456,서울특별시 강동구 길동
37.5282539,127.1447139,1995,서울특별시 강동구 둔촌동
37.5490445,127.1508229,2610,서울특별시 강동구 명일동
37.5511028,127.1696401,1788,서울특별시 강동구 상일동
37.5304933,127.128992,1875,서울특별시 강동구 성내동
37.5578058,127.1310675,2899,서울특별시 강동구 암사동
37.5443765,127.1276202,2204,서울특별시 강동구 천호동
37.6281999,127.0262498,4073,서울특별시 강북구 미아동
37.629038,127.0367452,1329,서울특별시 강북구 번동
37.6383275,127.0073721,1087,서울특별시 강북구 수유동
37.6572676,127.003039,114,서울특별시 강북구 우이동
37.5678802,126.8510787,2962,서울특별시 강서구 가양동
37.5542807,126.7970146,128,서울특별시 강서구 공항동
37.5524944,126.8333061,2191,서울특별시 강서구 내발산동
37.5575223,126.8559611,3362,서울특별시 강서구 등촌동
37.5706297,126.8298909,1652,서울특별시 강서구 마곡동
37.5759058,126.8135931,3537,서울특별시 강서구 방화동
37.5527315,126.8707482,3172,서울특별시 강서구 염창동
37.5406979,126.8472722,3944,서울특별시 강서구 화곡동
37.4641016,126.9777609,332,서울특별시 관악구 남현동
37.4779671,126.9534883,6276,서울특별시 관악구 봉천동
37.4631968,126.9358124,3862,서울특별시 관악구 신림동
37.5478239,127.1047149,1901,서울특별시 광진구 광장동
37.5444007,127.092844,1301,서울특별시 광진구 구의동
37.5530406,127.0736767,196,서울특별시 광진구 군자동
37.5505785,127.0817378,5,서울특별시 광진구 능동
37.531692,127.074516,2735,서울특별시 광진구 자양동
37.563544,127.0888304,335,서울특별시 광진구 중곡동
37.5432534,127.07341,238,서울특별시 광진구 화양동
37.4826987,126.888039,31,서울특별시 구로구 가리봉동
37.4942409,126.8519326,3686,서울특별시 구로구 개봉동
37.5031884,126.858851,2143,서울특별시 구로구 고척동
37.4942566,126.8846869,6383,서울특별시 구로구 구로동
37.5004389,126.8285296,87,서울특별시 구로구 궁동
37.5099675,126.8822494,2377,서울특별시 구로구 신도림동
37.4919936,126.838542,1413,서울특별시 구로구 오류동
37.4941446,126.8206181,318,서울특별시 구로구 온수동
37.4808353,126.8398192,280,서울특별시 구로구 천왕동
37.4810886,126.8236073,249,서울특별시 구로구 항동
37.4766861,126.8837772,610,서울특별시 금천구 가산동
37.4674733,126.8982935,1890,서울특별시 금천구 독산동
37.4495276,126.9092894,2815,서울특별시 금천구 시흥동
37.6304722,127.0909904,4053,서울특별시 노원구 공릉동
37.6729909,127.0703498,11988,서울특별시 노원구 상계동
37.6282394,127.0567599,4654,서울특별시 노원구 월계동
37.6510125,127.0799977,6887,서울특별시 노원구 중계동
37.6376443,127.0725093,3097,서울특별시 노원구 하계동
37.6848459,127.0292193,1674,서울특별시 도봉구 도봉동
37.6652862,127.0310382,3126,서울특별시 도봉구 방학동
37.6533557,127.0271003,2987,서울특별시 도봉구 쌍문동
37.6477423,127.044059,5709,서울특별시 도봉구 창동
37.5710195,127.0566992,2942,서울특별시 동대문구 답십리동
37.5749456,127.0255567,70,서울특별시 동대문구 신설동
37.5757257,127.034286,1035,서울특별시 동대문구 용두동
37.5994604,127.0632505,1381,서울특별시 동대문구 이문동
37.570207,127.0700249,2880,서울특별시 동대문구 장안동
37.5797474,127.0557043,1611,서울특별시 동대문구 전농동
37.5837593,127.0372351,618,서울특별시 동대문구 제기동
37.5888074,127.0452806,472,서울특별시 동대문구 청량리동
37.5920886,127.0516746,256,서울특별시 동대문구 회기동
37.5882047,127.0645152,1372,서울특별시 동대문구 휘경동
37.5116108,126.9418959,1234,서울특별시 동작구 노량진동
37.5060736,126.9281015,1286,서울특별시 동작구 대방동
37.4992161,126.9738728,307,서울특별시 동작구 동작동
37.5124484,126.9536572,720,서울특별시 동작구 본동
37.4798074,126.9772568,3578,서울특별시 동작구 사당동
37.5032626,126.9506566,45,서울특별시 동작구 상도1동
37.4987343,126.9440592,3482,서울특별시 동작구 상도동
37.4926743,126.9171843,1651,서울특별시 동작구 신대방동
37.5055033,126.962349,1236,서울특별시 동작구 흑석동
37.5481125,126.9549965,1342,서울특별시 마포구 공덕동
37.5456505,126.9325148,2,서울특별시 마포구 구수동
37.5543865,126.9377806,111,서울특별시 마포구 노고산동
37.5497599,126.9431416,575,서울특별시 마포구 대흥동
37.5389594,126.9491776,1344,서울특별시 마포구 도화동
37.5575817,126.9251554,5,서울특별시 마포구 동교동
37.5371298,126.9438418,188,서울특별시 마포구 마포동
37.5554884,126.8998606,782,서울특별시 마포구 망원동
37.5466701,126.9244874,210,서울특별시 마포구 상수동
37.5707485,126.8798744,990,서울특별시 마포구 상암동
37.5537811,126.9186768,386,서울특별시 마포구 서교동
37.5656178,126.9046897,1233,서울특별시 마포구 성산동
37.5440794,126.9559061,903,서울특별시 마포구 신공덕동
37.548572,126.9368133,630,서울특별시 마포구 신수동
37.5430171,126.9304632,159,서울특별시 마포구 신정동
37.5544849,126.9562273,987,서울특별시 마포구 아현동
37.5627439,126.9214088,184,서울특별시 마포구 연남동
37.5491616,126.9472617,634,서울특별시 마포구 염리동
37.542285,126.9430588,250,서울특별시 마포구 용강동
37.5716314,126.9061564,511,서울특별시 마포구 중동
37.5502554,126.9300858,912,서울특별시 마포구 창전동
37.5389116,126.9398011,132,서울특별시 마포구 토정동
37.5437078,126.9279675,84,서울특별시 마포구 하중동
37.5483014,126.9111751,154,서울특별시 마포구 합정동
37.5422226,126.9343761,340,서울특별시 마포구 현석동
37.5756218,126.9194417,1690,서울특별시 서대문구 남가좌동
37.5668121,126.9623526,239,서울특별시 서대문구 냉천동
37.5604123,126.9463132,279,서울특별시 서대문구 대현동
37.5633354,126.9672856,9,서울특별시 서대문구 미근동
37.5787976,126.9111852,1269,서울특별시 서대문구 북가좌동
37.5624168,126.9543856,892,서울특별시 서대문구 북아현동
37.5719815,126.9328285,667,서울특별시 서대문구 연희동
37.5702997,126.95771,234,서울특별시 서대문구 영천동
37.5587015,126.9342139,76,서울특별시 서대문구 창천동
37.5679249,126.959429,308,서울특별시 서대문구 천연동
37.5648525,126.9641834,18,서울특별시 서대문구 충정로2가
37.5621184,126.9619551,130,서울특별시 서대문구 충정로3가
37.5615701,126.9660687,61,서울특별시 서대문구 합동
37.5737732,126.9540471,412,서울특별시 서대문구 현저동
37.5930107,126.9385581,1673,서울특별시 서대문구 홍은동
37.5928868,126.9489057,2646,서울특별시 서대문구 홍제동
37.4550628,127.0695079,214,서울특별시 서초구 내곡동
37.5039744,127.0007494,3056,서울특별시 서초구 반포동
37.4794939,126.9931207,2990,서울특별시 서초구 방배동
37.4883869,127.0167954,4462,서울특별시 서초구 서초동
37.4441742,127.062145,200,서울특별시 서초구 신원동
37.4719823,127.0374623,508,서울특별시 서초구 양재동
37.4659338,127.0179442,793,서울특별시 서초구 우면동
37.5151065,127.0137779,2976,서울특별시 서초구 잠원동
37.553569,127.0249849,791,서울특별시 성동구 금호동1가
37.5530275,127.020416,513,서울특별시 성동구 금호동2가
37.549893,127.0195641,626,서울특별시 성동구 금호동3가
37.545465,127.0243047,995,서울특별시 성동구 금호동4가
37.5666113,127.0299063,89,서울특별시 성동구 도선동
37.5669747,127.040228,1093,서울특별시 성동구 마장동
37.5595968,127.0449623,92,서울특별시 성동구 사근동
37.5639874,127.0280247,150,서울특별시 성동구 상왕십리동
37.5436099,127.0428194,1346,서울특별시 성동구 성수동1가
37.5406846,127.0566319,734,서울특별시 성동구 성수동2가
37.5525301,127.064491,215,서울특별시 성동구 송정동
37.5438285,127.013956,1788,서울특별시 성동구 옥수동
37.5602836,127.0556556,79,서울특별시 성동구 용답동
37.5515276,127.0330901,1001,서울특별시 성동구 응봉동
37.5639874,127.0280247,1765,서울특별시 성동구 하왕십리동
37.5576248,127.0359917,2264,서울특별시 성동구 행당동
37.5664906,127.0323483,50,서울특별시 성동구 홍익동
37.6085948,127.0220461,3681,서울특별시 성북구 길음동
37.5977955,127.0182829,2723,서울특별시 성북구 돈암동
37.5923136,127.0182356,12,서울특별시 성북구 동선동1가
37.5939316,127.0206834,8,서울특별시 성북구 동선동3가
37.595196,127.018624,11,서울특별시 성북구 동선동4가
37.5962961,127.0166599,2,서울특별시 성북구 동선동5가
37.5917567,127.0106559,106,서울특별시 성북구 동소문동4가
37.5916389,127.0153864,52,서울특별시 성북구 동소문동5가
37.593531,127.0142559,10,서울특별시 성북구 동소문동6가
37.5963265,127.0141985,148,서울특별시 성북구 동소문동7가
37.5864978,127.0196676,32,서울특별시 성북구 보문동1가
37.5857569,127.0182315,3,서울특별시 성북구 보문동2가
37.5839571,127.0163687,188,서울특별시 성북구 보문동3가
37.5829136,127.0213683,28,서울특별시 성북구 보문동4가
37.5804013,127.0188595,281,서울특별시 성북구 보문동6가
37.5838768,127.0113794,345,서울특별시 성북구 삼선동2가
37.5865424,127.0130766,106,서울특별시 성북구 삼선동3가
37.5900244,127.0131676,78,서울특별시 성북구 삼선동4가
37.5885404,127.0158778,5,서울특별시 성북구 삼선동5가
37.6060997,127.0478098,382,서울특별시 성북구 상월곡동
37.6082694,127.0614872,946,서울특별시 성북구 석관동
37.5952093,126.9978087,21,서울특별시 성북구 성북동
37.5895407,127.0037025,11,서울특별시 성북구 성북동1가
37.5887056,127.0221087,143,서울특별시 성북구 안암동1가
37.5835459,127.0233366,85,서울특별시 성북구 안암동3가
37.580686,127.0246673,15,서울특별시 성북구 안암동4가
37.6151872,127.0498879,686,서울특별시 성북구 장위동
37.615604,126.9976191,3407,서울특별시 성북구 정릉동
37.5971752,127.0338975,1696,서울특별시 성북구 종암동
37.6046451,127.0393912,1909,서울특별시 성북구 하월곡동
37.4956865,127.1184047,3727,서울특별시 송파구 가락동
37.4897279,127.1449912,1336,서울특별시 송파구 거여동
37.4984934,127.1527443,498,서울특별시 송파구 마천동
37.4855846,127.1225635,2249,서울특별시 송파구 문정동
37.5156746,127.1253915,1421,서울특별시 송파구 방이동
37.5019016,127.0918885,61,서울특별시 송파구 삼전동
37.5024352,127.1026694,235,서울특별시 송파구 석촌동
37.5051072,127.1135469,1192,서울특별시 송파구 송파동
37.5239227,127.0989719,2317,서울특별시 송파구 신천동
37.5041934,127.1344585,1119,서울특별시 송파구 오금동
37.5067945,127.0830482,3978,서울특별시 송파구 잠실동
37.4768715,127.1320663,1260,서울특별시 송파구 장지동
37.5332133,127.113992,1533,서울특별시 송파구 풍납동
37.5360367,126.8745334,5149,서울특별시 양천구 목동
37.5264285,126.8342266,3895,서울특별시 양천구 신월동
37.5151795,126.8557093,6657,서울특별시 양천구 신정동
37.5364736,126.9040058,427,서울특별시 영등포구 당산동
37.5216841,126.8985127,209,서울특별시 영등포구 당산동1가
37.5224833,126.8937056,393,서울특별시 영등포구 당산동2가
37.5258617,126.8971134,447,서울특별시 영등포구 당산동3가
37.5290596,126.8990822,1032,서울특별시 영등포구 당산동4가
37.5320868,126.9012,738,서울특별시 영등포구 당산동5가
37.5346602,126.9028802,18,서울특별시 영등포구 당산동6가
37.4954266,126.9001326,1621,서울특별시 영등포구 대림동
37.5095782,126.9017319,262,서울특별시 영등포구 도림동
37.5127723,126.8930828,79,서울특별시 영등포구 문래동2가
37.5172698,126.8957152,663,서울특별시 영등포구 문래동3가
37.5144561,126.889867,128,서울특별시 영등포구 문래동4가
37.5166359,126.883964,264,서울특별시 영등포구 문래동5가
37.5198918,126.8846804,573,서울특별시 영등포구 문래동6가
37.5060633,126.9136167,3010,서울특별시 영등포구 신길동
37.5231898,126.8886985,227,서울특별시 영등포구 양평동1가
37.5234266,126.8837577,323,서울특별시 영등포구 양평동2가
37.5290356,126.8910476,695,서울특별시 영등포구 양평동3가
37.5363174,126.8961515,219,서울특별시 영등포구 양평동4가
37.5393663,126.8926449,394,서울특별시 영등포구 양평동5가
37.5426372,126.8895727,160,서울특별시 영등포구 양평동6가
37.5292257,126.9293831,1451,서울특별시 영등포구 여의도동
37.5137832,126.9069186,771,서울특별시 영등포구 영등포동
37.517626,126.9128666,170,서울특별시 영등포구 영등포동1가
37.5206095,126.9121946,21,서울특별시 영등포구 영등포동2가
37.5182625,126.9078988,30,서울특별시 영등포구 영등포동3가
37.5178903,126.9035759,17,서울특별시 영등포구 영등포동4가
37.5210747,126.9066805,35,서울특별시 영등포구 영등포동5가
37.5242915,126.9071195,420,서울특별시 영등포구 영등포동7가
37.5283544,126.9053409,310,서울특별시 영등포구 영등포동8가
37.5454036,126.9723606,39,서울특별시 용산구 갈월동
37.5386609,126.9559451,350,서울특별시 용산구 도원동
37.5244624,126.9951449,19,서울특별시 용산구 동빙고동
37.5520713,126.9724315,45,서울특별시 용산구 동자동
37.5371083,126.96942,390,서울특별시 용산구 문배동
37.5268698,127.0009168,111,서울특별시 용산구 보광동
37.5354796,126.9514303,305,서울특별시 용산구 산천동
37.5521664,126.9668013,70,서울특별시 용산구 서계동
37.5233986,126.9905244,232,서울특별시 용산구 서빙고동
37.5351798,126.9657738,118,서울특별시 용산구 신계동
37.5357734,126.9549784,28,서울특별시 용산구 신창동
37.5378157,126.9590784,39,서울특별시 용산구 용문동
37.5428773,126.9850139,20,서울특별시 용산구 용산동2가
37.5261469,126.9745744,104,서울특별시 용산구 용산동5가
37.5399801,126.967447,104,서울특별시 용산구 원효로1가
37.5362972,126.9633401,7,서울특별시 용산구 원효로2가
37.5342986,126.9576515,8,서울특별시 용산구 원효로3가
37.5325468,126.9507037,215,서울특별시 용산구 원효로4가
37.5174531,126.9665337,2126,서울특별시 용산구 이촌동
37.5385051,126.9925224,200,서울특별시 용산구 이태원동
37.5344957,126.9466634,30,서울특별시 용산구 청암동
37.5487915,126.9674681,5,서울특별시 용산구 청파동1가
37.5432529,126.9669612,12,서울특별시 용산구 청파동3가
37.5360771,126.9730219,90,서울특별시 용산구 한강로1가
37.5315409,126.9685985,145,서울특별시 용산구 한강로2가
37.5276547,126.9622041,199,서울특별시 용산구 한강로3가
37.5375279,127.0051334,633,서울특별시 용산구 한남동
37.5433203,126.9611019,260,서울특별시 용산구 효창동
37.5498982,126.9806255,104,서울특별시 용산구 후암동
37.621541,126.913578,535,서울특별시 은평구 갈현동
37.611231,126.9088437,600,서울특별시 은평구 구산동
37.6046138,126.9323836,847,서울특별시 은평구 녹번동
37.6120477,126.923359,501,서울특별시 은평구 대조동
37.6191594,126.9355669,1771,서울특별시 은평구 불광동
37.5861575,126.8933245,557,서울특별시 은평구 수색동
37.595613,126.9072033,1291,서울특별시 은평구 신사동
37.6045773,126.9146251,452,서울특별시 은평구 역촌동
37.5938352,126.9231281,2104,서울특별시 은평구 응암동
